[
    {
        "Unnamed: 0": 0,
        "station_id": "1611400",
        "station_name": "Nawiliwili",
        "state": "HI",
        "lon": -159.3561,
        "lat": 21.9544,
        "established": "1954-11-24 00:00:00.0",
        "MLLW": 0.6979920000000001,
        "NAVD88":"NaN",
        "tideType": "Mixed",
        "waterBody":"NaN",
        "source": "noaa"
    },
    {
        "Unnamed: 0": 1,
        "station_id": "1612340",
        "station_name": "Honolulu",
        "state": "HI",
        "lon": -157.86700000000002,
        "lat": 21.306694,
        "established": "1905-01-01 00:00:00.0",
        "MLLW": 1.161288,
        "NAVD88":"NaN",
        "tideType": "Mixed",
        "waterBody":"NaN",
        "source": "noaa"
    },
    {
        "Unnamed: 0": 2,
        "station_id": "1612480",
        "station_name": "Mokuoloe",
        "state": "HI",
        "lon": -157.79,
        "lat": 21.433056,
        "established": "1957-05-03 00:00:00.0",
        "MLLW": 0.890016,
        "NAVD88":"NaN",
        "tideType": "Mixed",
        "waterBody":"NaN",
        "source": "noaa"
    },
    {
        "Unnamed: 0": 3,
        "station_id": "1615680",
        "station_name": "Kahului, Kahului Harbor",
        "state": "HI",
        "lon": -156.47669399999998,
        "lat": 20.895,
        "established": "1946-12-19 00:00:00.0",
        "MLLW": 0.7345680000000001,
        "NAVD88":"NaN",
        "tideType": "Mixed",
        "waterBody":"NaN",
        "source": "noaa"
    },
    {
        "Unnamed: 0": 4,
        "station_id": "1617433",
        "station_name": "Kawaihae",
        "state": "HI",
        "lon": -155.8294,
        "lat": 20.0366,
        "established": "1988-02-06 00:00:00.0",
        "MLLW": 0.8686800000000001,
        "NAVD88":"NaN",
        "tideType": "Mixed",
        "waterBody":"NaN",
        "source": "noaa"
    },
    {
        "Unnamed: 0": 5,
        "station_id": "1617760",
        "station_name": "Hilo, Hilo Bay, Kuhio Bay",
        "state": "HI",
        "lon": -155.06,
        "lat": 19.73028,
        "established": "1946-11-30 00:00:00.0",
        "MLLW": 1.194816,
        "NAVD88":"NaN",
        "tideType": "Mixed",
        "waterBody":"NaN",
        "source": "noaa"
    },
    {
        "Unnamed: 0": 6,
        "station_id": "1619910",
        "station_name": "Sand Island, Midway Islands",
        "state": "United States of America",
        "lon": -177.36,
        "lat": 28.2117,
        "established": "1947-02-02 00:00:00.0",
        "MLLW": 0.8229600000000001,
        "NAVD88":"NaN",
        "tideType": "Mixed",
        "waterBody":"NaN",
        "source": "noaa"
    },
    {
        "Unnamed: 0": 7,
        "station_id": "1630000",
        "station_name": "Apra Harbor, Guam",
        "state": "United States of America",
        "lon": 144.656361,
        "lat": 13.44339,
        "established": "1948-03-11 00:00:00.0",
        "MLLW": 0.408432,
        "NAVD88":"NaN",
        "tideType": "Mixed",
        "waterBody":"NaN",
        "source": "noaa"
    },
    {
        "Unnamed: 0": 8,
        "station_id": "1631428",
        "station_name": "Pago Bay, Guam",
        "state": "United States of America",
        "lon": 144.796944,
        "lat": 13.428333,
        "established": "2004-04-22 00:00:00.0",
        "MLLW": 7.424927999999999,
        "NAVD88":"NaN",
        "tideType": "Mixed",
        "waterBody":"NaN",
        "source": "noaa"
    },
    {
        "Unnamed: 0": 9,
        "station_id": "1820000",
        "station_name": "Kwajalein, Marshall Islands",
        "state": "United States of America",
        "lon": 167.73611499999998,
        "lat": 8.7317,
        "established": "1946-06-10 00:00:00.0",
        "MLLW": 0.890016,
        "NAVD88":"NaN",
        "tideType": "Mixed",
        "waterBody":"NaN",
        "source": "noaa"
    },
    {
        "Unnamed: 0": 10,
        "station_id": "1890000",
        "station_name": "Wake Island, Pacific Ocean",
        "state": "United States of America",
        "lon": 166.6175,
        "lat": 19.290556,
        "established": "1950-05-29 00:00:00.0",
        "MLLW": 1.261872,
        "NAVD88":"NaN",
        "tideType": "Mixed",
        "waterBody":"NaN",
        "source": "noaa"
    },
    {
        "Unnamed: 0": 11,
        "station_id": "8311030",
        "station_name": "Ogdensburg",
        "state": "NY",
        "lon": -75.494,
        "lat": 44.701668,
        "established": "1900-09-01 00:00:00.0",
        "MLLW":"NaN",
        "NAVD88":"NaN",
        "tideType": "Great Lakes",
        "waterBody":"NaN",
        "source": "noaa"
    },
    {
        "Unnamed: 0": 12,
        "station_id": "8311062",
        "station_name": "Alexandria Bay",
        "state": "NY",
        "lon": -75.934528,
        "lat": 44.33111,
        "established": "1983-06-01 00:00:00.0",
        "MLLW":"NaN",
        "NAVD88":"NaN",
        "tideType": "Great Lakes",
        "waterBody":"NaN",
        "source": "noaa"
    },
    {
        "Unnamed: 0": 13,
        "station_id": "8410140",
        "station_name": "Eastport",
        "state": "ME",
        "lon": -66.98290300000001,
        "lat": 44.904598,
        "established": "1929-09-12 00:00:00.0",
        "MLLW": 1.46304,
        "NAVD88": 4.4897040000000015,
        "tideType": "Mixed",
        "waterBody":"NaN",
        "source": "noaa"
    },
    {
        "Unnamed: 0": 14,
        "station_id": "8411060",
        "station_name": "Cutler Farris Wharf",
        "state": "ME",
        "lon": -67.204666,
        "lat": 44.657028,
        "established": "1963-09-25 00:00:00.0",
        "MLLW": 1.667256,
        "NAVD88": 3.959352,
        "tideType": "Mixed",
        "waterBody":"NaN",
        "source": "noaa"
    },
    {
        "Unnamed: 0": 15,
        "station_id": "8413320",
        "station_name": "Bar Harbor",
        "state": "ME",
        "lon": -68.204278,
        "lat": 44.392194,
        "established": "1947-08-16 00:00:00.0",
        "MLLW": 1.0576560000000002,
        "NAVD88":"NaN",
        "tideType": "Mixed",
        "waterBody":"NaN",
        "source": "noaa"
    },
    {
        "Unnamed: 0": 16,
        "station_id": "8418150",
        "station_name": "Portland",
        "state": "ME",
        "lon": -70.24417,
        "lat": 43.65806,
        "established": "1910-03-04 00:00:00.0",
        "MLLW": 2.60604,
        "NAVD88": 4.209288000000001,
        "tideType": "Mixed",
        "waterBody":"NaN",
        "source": "noaa"
    },
    {
        "Unnamed: 0": 17,
        "station_id": "8419317",
        "station_name": "Wells",
        "state": "ME",
        "lon": -70.56330600000001,
        "lat": 43.32,
        "established": "1999-06-10 00:00:00.0",
        "MLLW": 4.501896,
        "NAVD88": 6.068568,
        "tideType": "Mixed",
        "waterBody":"NaN",
        "source": "noaa"
    },
    {
        "Unnamed: 0": 18,
        "station_id": "8419870",
        "station_name": "Seavey Island",
        "state": "ME",
        "lon": -70.741111,
        "lat": 43.079722,
        "established": "1926-08-26 00:00:00.0",
        "MLLW": 0.71628,
        "NAVD88": 2.1244560000000003,
        "tideType": "Mixed",
        "waterBody":"NaN",
        "source": "noaa"
    },
    {
        "Unnamed: 0": 19,
        "station_id": "8443970",
        "station_name": "Boston",
        "state": "MA",
        "lon": -71.0534,
        "lat": 42.354801,
        "established": "1921-05-03 00:00:00.0",
        "MLLW": 1.0728959999999998,
        "NAVD88": 2.752344,
        "tideType": "Mixed",
        "waterBody":"NaN",
        "source": "noaa"
    },
    {
        "Unnamed: 0": 20,
        "station_id": "8447386",
        "station_name": "Fall River",
        "state": "MA",
        "lon": -71.164111,
        "lat": 41.704306,
        "established": "1955-10-28 00:00:00.0",
        "MLLW": 6.361176,
        "NAVD88": 7.095744000000002,
        "tideType": "Mixed",
        "waterBody":"NaN",
        "source": "noaa"
    },
    {
        "Unnamed: 0": 21,
        "station_id": "8447435",
        "station_name": "Chatham, Lydia Cove",
        "state": "MA",
        "lon": -69.95083000000001,
        "lat": 41.688056,
        "established": "1955-04-27 00:00:00.0",
        "MLLW": 1.2771120000000002,
        "NAVD88": 2.036064,
        "tideType": "Mixed",
        "waterBody":"NaN",
        "source": "noaa"
    },
    {
        "Unnamed: 0": 22,
        "station_id": "8447930",
        "station_name": "Woods Hole",
        "state": "MA",
        "lon": -70.671112,
        "lat": 41.523613,
        "established": "1932-07-16 00:00:00.0",
        "MLLW": 0.7985760000000001,
        "NAVD88": 1.2131040000000002,
        "tideType": "Mixed",
        "waterBody":"NaN",
        "source": "noaa"
    },
    {
        "Unnamed: 0": 23,
        "station_id": "8449130",
        "station_name": "Nantucket Island",
        "state": "MA",
        "lon": -70.09639,
        "lat": 41.285278000000005,
        "established": "1963-10-04 00:00:00.0",
        "MLLW": 0.9144,
        "NAVD88":"NaN",
        "tideType": "Mixed",
        "waterBody":"NaN",
        "source": "noaa"
    },
    {
        "Unnamed: 0": 24,
        "station_id": "8452660",
        "station_name": "Newport",
        "state": "RI",
        "lon": -71.326139,
        "lat": 41.504333,
        "established": "1930-09-11 00:00:00.0",
        "MLLW": 0.576072,
        "NAVD88": 1.197864,
        "tideType": "Mixed",
        "waterBody":"NaN",
        "source": "noaa"
    },
    {
        "Unnamed: 0": 25,
        "station_id": "8452944",
        "station_name": "Conimicut Light",
        "state": "RI",
        "lon": -71.343333,
        "lat": 41.716667,
        "established": "1999-09-28 00:00:00.0",
        "MLLW": 5.6509920000000005,
        "NAVD88":"NaN",
        "tideType": "Mixed",
        "waterBody":"NaN",
        "source": "noaa"
    },
    {
        "Unnamed: 0": 26,
        "station_id": "8454000",
        "station_name": "Providence",
        "state": "RI",
        "lon": -71.401199,
        "lat": 41.807098,
        "established": "1938-06-03 00:00:00.0",
        "MLLW": 1.063752,
        "NAVD88": 1.816608,
        "tideType": "Mixed",
        "waterBody":"NaN",
        "source": "noaa"
    },
    {
        "Unnamed: 0": 27,
        "station_id": "8454049",
        "station_name": "Quonset Point",
        "state": "RI",
        "lon": -71.41,
        "lat": 41.586940000000006,
        "established": "1999-09-24 00:00:00.0",
        "MLLW": 7.013448000000001,
        "NAVD88": 7.6962,
        "tideType": "Mixed",
        "waterBody":"NaN",
        "source": "noaa"
    },
    {
        "Unnamed: 0": 28,
        "station_id": "8461490",
        "station_name": "New London",
        "state": "CT",
        "lon": -72.089996,
        "lat": 41.361401,
        "established": "1938-06-11 00:00:00.0",
        "MLLW": 1.0728959999999998,
        "NAVD88": 1.633728,
        "tideType": "Mixed",
        "waterBody":"NaN",
        "source": "noaa"
    },
    {
        "Unnamed: 0": 29,
        "station_id": "8465705",
        "station_name": "New Haven",
        "state": "CT",
        "lon": -72.908333,
        "lat": 41.283333,
        "established": "1999-08-11 00:00:00.0",
        "MLLW": 5.614416000000001,
        "NAVD88":"NaN",
        "tideType": "Mixed",
        "waterBody":"NaN",
        "source": "noaa"
    },
    {
        "Unnamed: 0": 30,
        "station_id": "8467150",
        "station_name": "Bridgeport",
        "state": "CT",
        "lon": -73.181702,
        "lat": 41.173302,
        "established": "1932-06-10 00:00:00.0",
        "MLLW": 0.603504,
        "NAVD88": 1.7739360000000002,
        "tideType": "Mixed",
        "waterBody":"NaN",
        "source": "noaa"
    },
    {
        "Unnamed: 0": 31,
        "station_id": "8510560",
        "station_name": "Montauk",
        "state": "NY",
        "lon": -71.95944399999999,
        "lat": 41.048333,
        "established": "1947-09-05 00:00:00.0",
        "MLLW": 1.176528,
        "NAVD88": 1.655064,
        "tideType": "Mixed",
        "waterBody":"NaN",
        "source": "noaa"
    },
    {
        "Unnamed: 0": 32,
        "station_id": "8516945",
        "station_name": "Kings Point",
        "state": "NY",
        "lon": -73.765,
        "lat": 40.810306,
        "established": "1998-10-27 00:00:00.0",
        "MLLW": 3.925824,
        "NAVD88": 5.2090320000000006,
        "tideType": "Mixed",
        "waterBody":"NaN",
        "source": "noaa"
    },
    {
        "Unnamed: 0": 33,
        "station_id": "8518750",
        "station_name": "The Battery",
        "state": "NY",
        "lon": -74.014167,
        "lat": 40.700556,
        "established": "1920-05-24 00:00:00.0",
        "MLLW": 1.002792,
        "NAVD88": 1.847088,
        "tideType": "Mixed",
        "waterBody":"NaN",
        "source": "noaa"
    },
    {
        "Unnamed: 0": 34,
        "station_id": "8518962",
        "station_name": "Turkey Point Hudson River NERRS",
        "state": "NY",
        "lon": -73.939167,
        "lat": 42.014167,
        "established": "2017-06-20 00:00:00.0",
        "MLLW": 7.659624000000001,
        "NAVD88":"NaN",
        "tideType": "Mixed",
        "waterBody":"NaN",
        "source": "noaa"
    },
    {
        "Unnamed: 0": 35,
        "station_id": "8519483",
        "station_name": "Bergen Point West Reach",
        "state": "NY",
        "lon": -74.14630600000001,
        "lat": 40.6391,
        "established": "1981-09-17 00:00:00.0",
        "MLLW": 1.2923520000000002,
        "NAVD88":"NaN",
        "tideType": "Mixed",
        "waterBody":"NaN",
        "source": "noaa"
    },
    {
        "Unnamed: 0": 36,
        "station_id": "8531680",
        "station_name": "Sandy Hook",
        "state": "NJ",
        "lon": -74.00944399999999,
        "lat": 40.466944,
        "established": "1910-01-07 00:00:00.0",
        "MLLW": 0.765048,
        "NAVD88": 1.624584,
        "tideType": "Mixed",
        "waterBody":"NaN",
        "source": "noaa"
    },
    {
        "Unnamed: 0": 37,
        "station_id": "8534720",
        "station_name": "Atlantic City",
        "state": "NJ",
        "lon": -74.418053,
        "lat": 39.356667,
        "established": "1911-08-15 00:00:00.0",
        "MLLW": 1.511808,
        "NAVD88": 2.3073360000000003,
        "tideType": "Mixed",
        "waterBody":"NaN",
        "source": "noaa"
    },
    {
        "Unnamed: 0": 38,
        "station_id": "8536110",
        "station_name": "Cape May",
        "state": "NJ",
        "lon": -74.959722,
        "lat": 38.967778,
        "established": "1965-10-25 00:00:00.0",
        "MLLW": 0.7376159999999999,
        "NAVD88": 1.6581120000000005,
        "tideType": "Mixed",
        "waterBody":"NaN",
        "source": "noaa"
    },
    {
        "Unnamed: 0": 39,
        "station_id": "8537121",
        "station_name": "Ship John Shoal",
        "state": "NJ",
        "lon": -75.37668000000001,
        "lat": 39.30539,
        "established": "1997-10-30 00:00:00.0",
        "MLLW": 5.602224,
        "NAVD88":"NaN",
        "tideType": "Mixed",
        "waterBody":"NaN",
        "source": "noaa"
    },
    {
        "Unnamed: 0": 40,
        "station_id": "8539094",
        "station_name": "Burlington, Delaware River",
        "state": "NJ",
        "lon": -74.873333,
        "lat": 40.08,
        "established": "1977-02-21 00:00:00.0",
        "MLLW": 5.1328320000000005,
        "NAVD88":"NaN",
        "tideType": "Mixed",
        "waterBody":"NaN",
        "source": "noaa"
    },
    {
        "Unnamed: 0": 41,
        "station_id": "8540433",
        "station_name": "Marcus Hook",
        "state": "PA",
        "lon": -75.409444,
        "lat": 39.811667,
        "established": "1981-09-10 00:00:00.0",
        "MLLW": 6.59892,
        "NAVD88": 7.507224000000001,
        "tideType": "Mixed",
        "waterBody":"NaN",
        "source": "noaa"
    },
    {
        "Unnamed: 0": 42,
        "station_id": "8545240",
        "station_name": "Philadelphia",
        "state": "PA",
        "lon": -75.141667,
        "lat": 39.933333000000005,
        "established": "1989-02-28 00:00:00.0",
        "MLLW": 1.164336,
        "NAVD88": 2.109216,
        "tideType": "Mixed",
        "waterBody":"NaN",
        "source": "noaa"
    },
    {
        "Unnamed: 0": 43,
        "station_id": "8546252",
        "station_name": "Bridesburg",
        "state": "PA",
        "lon": -75.075,
        "lat": 39.983333,
        "established": "1979-07-23 00:00:00.0",
        "MLLW": 5.952744000000001,
        "NAVD88":"NaN",
        "tideType": "Mixed",
        "waterBody":"NaN",
        "source": "noaa"
    },
    {
        "Unnamed: 0": 44,
        "station_id": "8548989",
        "station_name": "Newbold",
        "state": "PA",
        "lon": -74.751889,
        "lat": 40.137306,
        "established": "2001-10-27 00:00:00.0",
        "MLLW": 4.3647360000000015,
        "NAVD88":"NaN",
        "tideType": "Mixed",
        "waterBody":"NaN",
        "source": "noaa"
    },
    {
        "Unnamed: 0": 45,
        "station_id": "8551762",
        "station_name": "Delaware City",
        "state": "DE",
        "lon": -75.5883,
        "lat": 39.5817,
        "established": "2001-10-08 00:00:00.0",
        "MLLW": 6.82752,
        "NAVD88":"NaN",
        "tideType": "Mixed",
        "waterBody":"NaN",
        "source": "noaa"
    },
    {
        "Unnamed: 0": 46,
        "station_id": "8551910",
        "station_name": "Reedy Point",
        "state": "DE",
        "lon": -75.57194399999999,
        "lat": 39.558333000000005,
        "established": "1956-07-30 00:00:00.0",
        "MLLW": 0.4114800000000001,
        "NAVD88": 1.316736,
        "tideType": "Mixed",
        "waterBody":"NaN",
        "source": "noaa"
    },
    {
        "Unnamed: 0": 47,
        "station_id": "8555889",
        "station_name": "Brandywine Shoal Light",
        "state": "DE",
        "lon": -75.113,
        "lat": 38.987,
        "established": "1984-03-18 00:00:00.0",
        "MLLW": 5.788151999999999,
        "NAVD88":"NaN",
        "tideType": "Mixed",
        "waterBody":"NaN",
        "source": "noaa"
    },
    {
        "Unnamed: 0": 48,
        "station_id": "8557380",
        "station_name": "Lewes",
        "state": "DE",
        "lon": -75.119164,
        "lat": 38.78278,
        "established": "1919-01-14 00:00:00.0",
        "MLLW": 0.8473440000000001,
        "NAVD88": 1.6489680000000002,
        "tideType": "Mixed",
        "waterBody":"NaN",
        "source": "noaa"
    },
    {
        "Unnamed: 0": 49,
        "station_id": "8570283",
        "station_name": "Ocean City Inlet",
        "state": "MD",
        "lon": -75.091086,
        "lat": 38.328267,
        "established": "1978-06-05 00:00:00.0",
        "MLLW": 2.456688,
        "NAVD88": 2.983992,
        "tideType": "Mixed",
        "waterBody":"NaN",
        "source": "noaa"
    },
    {
        "Unnamed: 0": 50,
        "station_id": "8571421",
        "station_name": "Bishops Head",
        "state": "MD",
        "lon": -76.0383,
        "lat": 38.22,
        "established": "2005-03-22 00:00:00.0",
        "MLLW": 8.823960000000001,
        "NAVD88": 9.192768,
        "tideType": "Mixed",
        "waterBody":"NaN",
        "source": "noaa"
    },
    {
        "Unnamed: 0": 51,
        "station_id": "8571892",
        "station_name": "Cambridge",
        "state": "MD",
        "lon": -76.061667,
        "lat": 38.5725,
        "established": "1980-10-21 00:00:00.0",
        "MLLW": 0.749808,
        "NAVD88": 1.088136,
        "tideType": "Mixed",
        "waterBody":"NaN",
        "source": "noaa"
    },
    {
        "Unnamed: 0": 52,
        "station_id": "8573364",
        "station_name": "Tolchester Beach",
        "state": "MD",
        "lon": -76.24453100000001,
        "lat": 39.2134,
        "established": "1971-06-24 00:00:00.0",
        "MLLW": 1.039368,
        "NAVD88": 1.338072,
        "tideType": "Mixed",
        "waterBody":"NaN",
        "source": "noaa"
    },
    {
        "Unnamed: 0": 53,
        "station_id": "8573927",
        "station_name": "Chesapeake City",
        "state": "MD",
        "lon": -75.81,
        "lat": 39.526667,
        "established": "1972-11-15 00:00:00.0",
        "MLLW": 0.96012,
        "NAVD88": 1.4478,
        "tideType": "Mixed",
        "waterBody":"NaN",
        "source": "noaa"
    },
    {
        "Unnamed: 0": 54,
        "station_id": "8574680",
        "station_name": "Baltimore, Fort McHenry, Patapsco River",
        "state": "MD",
        "lon": -76.579444,
        "lat": 39.266944,
        "established": "1902-07-01 00:00:00.0",
        "MLLW": 1.24968,
        "NAVD88": 1.5057120000000002,
        "tideType": "Mixed",
        "waterBody":"NaN",
        "source": "noaa"
    },
    {
        "Unnamed: 0": 55,
        "station_id": "8575512",
        "station_name": "Annapolis",
        "state": "MD",
        "lon": -76.4816,
        "lat": 38.98328,
        "established": "1978-09-14 00:00:00.0",
        "MLLW": 1.3776959999999998,
        "NAVD88": 1.612392,
        "tideType": "Mixed",
        "waterBody":"NaN",
        "source": "noaa"
    },
    {
        "Unnamed: 0": 56,
        "station_id": "8577330",
        "station_name": "Solomons Island",
        "state": "MD",
        "lon": -76.45083299999999,
        "lat": 38.317222,
        "established": "1937-11-05 00:00:00.0",
        "MLLW": 1.1338560000000002,
        "NAVD88": 1.3929360000000002,
        "tideType": "Mixed",
        "waterBody":"NaN",
        "source": "noaa"
    },
    {
        "Unnamed: 0": 57,
        "station_id": "8594900",
        "station_name": "Washington",
        "state": "DC",
        "lon": -77.0217,
        "lat": 38.873000000000005,
        "established": "1924-11-10 00:00:00.0",
        "MLLW": 1.38684,
        "NAVD88": 1.81356,
        "tideType": "Mixed",
        "waterBody":"NaN",
        "source": "noaa"
    },
    {
        "Unnamed: 0": 58,
        "station_id": "8631044",
        "station_name": "Wachapreague",
        "state": "VA",
        "lon": -75.685833,
        "lat": 37.607778,
        "established": "1978-06-28 00:00:00.0",
        "MLLW": 0.707136,
        "NAVD88": 1.502664,
        "tideType": "Mixed",
        "waterBody":"NaN",
        "source": "noaa"
    },
    {
        "Unnamed: 0": 59,
        "station_id": "8632200",
        "station_name": "Kiptopeke",
        "state": "VA",
        "lon": -75.988444,
        "lat": 37.16519,
        "established": "1951-08-22 00:00:00.0",
        "MLLW": 1.103376,
        "NAVD88": 1.6855440000000002,
        "tideType": "Mixed",
        "waterBody":"NaN",
        "source": "noaa"
    },
    {
        "Unnamed: 0": 60,
        "station_id": "8635750",
        "station_name": "Lewisetta",
        "state": "VA",
        "lon": -76.464722,
        "lat": 37.995278000000006,
        "established": "1970-10-20 00:00:00.0",
        "MLLW": 1.453896,
        "NAVD88": 1.70688,
        "tideType": "Mixed",
        "waterBody":"NaN",
        "source": "noaa"
    },
    {
        "Unnamed: 0": 61,
        "station_id": "8636580",
        "station_name": "Windmill Point",
        "state": "VA",
        "lon": -76.29,
        "lat": 37.616111,
        "established": "1970-06-24 00:00:00.0",
        "MLLW": 0.673608,
        "NAVD88": 1.0332720000000002,
        "tideType": "Mixed",
        "waterBody":"NaN",
        "source": "noaa"
    },
    {
        "Unnamed: 0": 62,
        "station_id": "8637689",
        "station_name": "Yorktown USCG Training Center",
        "state": "VA",
        "lon": -76.478806,
        "lat": 37.2265,
        "established": "2004-01-22 00:00:00.0",
        "MLLW": 1.58496,
        "NAVD88": 2.051304,
        "tideType": "Mixed",
        "waterBody":"NaN",
        "source": "noaa"
    },
    {
        "Unnamed: 0": 63,
        "station_id": "8638610",
        "station_name": "Sewells Point",
        "state": "VA",
        "lon": -76.33000200000001,
        "lat": 36.946701,
        "established": "1927-07-01 00:00:00.0",
        "MLLW": 1.335024,
        "NAVD88": 1.8257520000000005,
        "tideType": "Mixed",
        "waterBody":"NaN",
        "source": "noaa"
    },
    {
        "Unnamed: 0": 64,
        "station_id": "8638901",
        "station_name": "CBBT, Chesapeake Channel",
        "state": "VA",
        "lon": -76.083298,
        "lat": 37.032902,
        "established": "2016-10-15 00:00:00.0",
        "MLLW": 1.3563600000000002,
        "NAVD88":"NaN",
        "tideType": "Mixed",
        "waterBody":"NaN",
        "source": "noaa"
    },
    {
        "Unnamed: 0": 65,
        "station_id": "8639348",
        "station_name": "Money Point",
        "state": "VA",
        "lon": -76.301694,
        "lat": 36.778306,
        "established": "1997-12-17 00:00:00.0",
        "MLLW": 6.583680000000001,
        "NAVD88":"NaN",
        "tideType": "Mixed",
        "waterBody":"NaN",
        "source": "noaa"
    },
    {
        "Unnamed: 0": 66,
        "station_id": "8651370",
        "station_name": "Duck",
        "state": "NC",
        "lon": -75.74669399999999,
        "lat": 36.183306,
        "established": "1977-12-01 00:00:00.0",
        "MLLW": 5.663183999999998,
        "NAVD88": 6.3306960000000005,
        "tideType": "Mixed",
        "waterBody":"NaN",
        "source": "noaa"
    },
    {
        "Unnamed: 0": 67,
        "station_id": "8652587",
        "station_name": "Oregon Inlet Marina",
        "state": "NC",
        "lon": -75.54805999999999,
        "lat": 35.795,
        "established": "1974-08-14 00:00:00.0",
        "MLLW": 0.789432,
        "NAVD88": 1.002792,
        "tideType": "Mixed",
        "waterBody":"NaN",
        "source": "noaa"
    },
    {
        "Unnamed: 0": 68,
        "station_id": "8654467",
        "station_name": "USCG Station Hatteras",
        "state": "NC",
        "lon": -75.704167,
        "lat": 35.208639,
        "established": "2010-04-22 00:00:00.0",
        "MLLW": 8.372856,
        "NAVD88": 8.491728,
        "tideType": "Mixed",
        "waterBody":"NaN",
        "source": "noaa"
    },
    {
        "Unnamed: 0": 69,
        "station_id": "8656483",
        "station_name": "Beaufort, Duke Marine Lab",
        "state": "NC",
        "lon": -76.67,
        "lat": 34.72,
        "established": "1964-06-04 00:00:00.0",
        "MLLW": 0.560832,
        "NAVD88": 1.194816,
        "tideType": "Mixed",
        "waterBody":"NaN",
        "source": "noaa"
    },
    {
        "Unnamed: 0": 70,
        "station_id": "8658120",
        "station_name": "Wilmington",
        "state": "NC",
        "lon": -77.953611,
        "lat": 34.2275,
        "established": "1908-01-01 00:00:00.0",
        "MLLW": 0.7467600000000001,
        "NAVD88": 1.53924,
        "tideType": "Mixed",
        "waterBody":"NaN",
        "source": "noaa"
    },
    {
        "Unnamed: 0": 71,
        "station_id": "8658163",
        "station_name": "Wrightsville Beach",
        "state": "NC",
        "lon": -77.78666700000001,
        "lat": 34.213333,
        "established": "2004-04-27 00:00:00.0",
        "MLLW": 5.739383999999999,
        "NAVD88": 6.577584,
        "tideType": "Mixed",
        "waterBody":"NaN",
        "source": "noaa"
    },
    {
        "Unnamed: 0": 72,
        "station_id": "8661070",
        "station_name": "Springmaid Pier",
        "state": "SC",
        "lon": -78.918306,
        "lat": 33.655,
        "established": "1976-09-28 00:00:00.0",
        "MLLW": 8.927592,
        "NAVD88": 9.890760000000002,
        "tideType": "Mixed",
        "waterBody":"NaN",
        "source": "noaa"
    },
    {
        "Unnamed: 0": 73,
        "station_id": "8662245",
        "station_name": "Oyster Landing (N Inlet Estuary)",
        "state": "SC",
        "lon": -79.1867,
        "lat": 33.3517,
        "established": "1982-12-13 00:00:00.0",
        "MLLW": 1.216152,
        "NAVD88": 2.0391120000000003,
        "tideType": "Mixed",
        "waterBody":"NaN",
        "source": "noaa"
    },
    {
        "Unnamed: 0": 74,
        "station_id": "8665530",
        "station_name": "Charleston, Cooper River Entrance",
        "state": "SC",
        "lon": -79.923611,
        "lat": 32.780833,
        "established": "1899-09-13 00:00:00.0",
        "MLLW": 0.8442959999999999,
        "NAVD88": 1.801368,
        "tideType": "Mixed",
        "waterBody":"NaN",
        "source": "noaa"
    },
    {
        "Unnamed: 0": 75,
        "station_id": "8670870",
        "station_name": "Fort Pulaski",
        "state": "GA",
        "lon": -80.9017,
        "lat": 32.0367,
        "established": "1935-07-01 00:00:00.0",
        "MLLW": 1.0668,
        "NAVD88": 2.30124,
        "tideType": "Mixed",
        "waterBody":"NaN",
        "source": "noaa"
    },
    {
        "Unnamed: 0": 76,
        "station_id": "8720030",
        "station_name": "Fernandina Beach",
        "state": "FL",
        "lon": -81.46583299999999,
        "lat": 30.671389,
        "established": "1897-05-08 00:00:00.0",
        "MLLW": 0.5181600000000001,
        "NAVD88": 1.682496,
        "tideType": "Mixed",
        "waterBody":"NaN",
        "source": "noaa"
    },
    {
        "Unnamed: 0": 77,
        "station_id": "8720218",
        "station_name": "Mayport (Bar Pilots Dock)",
        "state": "FL",
        "lon": -81.42788900000001,
        "lat": 30.398167,
        "established": "1995-08-01 00:00:00.0",
        "MLLW": 2.7675840000000003,
        "NAVD88": 3.678936,
        "tideType": "Mixed",
        "waterBody":"NaN",
        "source": "noaa"
    },
    {
        "Unnamed: 0": 78,
        "station_id": "8720219",
        "station_name": "Dames Point",
        "state": "FL",
        "lon": -81.559166,
        "lat": 30.387222,
        "established": "1977-08-12 00:00:00.0",
        "MLLW": 1.164336,
        "NAVD88": 1.847088,
        "tideType": "Mixed",
        "waterBody":"NaN",
        "source": "noaa"
    },
    {
        "Unnamed: 0": 79,
        "station_id": "8720226",
        "station_name": "Southbank Riverwalk, St Johns River",
        "state": "FL",
        "lon": -81.659058,
        "lat": 30.320499,
        "established": "1995-04-26 00:00:00.0",
        "MLLW": -0.399288,
        "NAVD88": -0.003048,
        "tideType": "Mixed",
        "waterBody":"NaN",
        "source": "noaa"
    },
    {
        "Unnamed: 0": 80,
        "station_id": "8721604",
        "station_name": "Trident Pier, Port Canaveral",
        "state": "FL",
        "lon": -80.593056,
        "lat": 28.415833000000003,
        "established": "1994-10-13 00:00:00.0",
        "MLLW": 5.4864000000000015,
        "NAVD88": 6.348984,
        "tideType": "Mixed",
        "waterBody":"NaN",
        "source": "noaa"
    },
    {
        "Unnamed: 0": 81,
        "station_id": "8722670",
        "station_name": "Lake Worth Pier, Atlantic Ocean",
        "state": "FL",
        "lon": -80.03416700000001,
        "lat": 26.612778,
        "established": "1970-04-14 00:00:00.0",
        "MLLW": 9.140952,
        "NAVD88": 9.906,
        "tideType": "Mixed",
        "waterBody":"NaN",
        "source": "noaa"
    },
    {
        "Unnamed: 0": 82,
        "station_id": "8722956",
        "station_name": "South Port Everglades",
        "state": "FL",
        "lon": -80.116667,
        "lat": 26.081667000000003,
        "established": "1973-07-20 00:00:00.0",
        "MLLW": 7.354824000000001,
        "NAVD88": 8.028432,
        "tideType": "Mixed",
        "waterBody":"NaN",
        "source": "noaa"
    },
    {
        "Unnamed: 0": 83,
        "station_id": "8723214",
        "station_name": "Virginia Key, Biscayne Bay",
        "state": "FL",
        "lon": -80.16166700000001,
        "lat": 25.731667,
        "established": "1994-01-26 00:00:00.0",
        "MLLW": 3.0876240000000004,
        "NAVD88": 3.70332,
        "tideType": "Mixed",
        "waterBody":"NaN",
        "source": "noaa"
    },
    {
        "Unnamed: 0": 84,
        "station_id": "8723970",
        "station_name": "Vaca Key, Florida Bay",
        "state": "FL",
        "lon": -81.1065,
        "lat": 24.711,
        "established": "1970-12-04 00:00:00.0",
        "MLLW": 0.7741920000000001,
        "NAVD88": 1.182624,
        "tideType": "Diurnal",
        "waterBody":"NaN",
        "source": "noaa"
    },
    {
        "Unnamed: 0": 85,
        "station_id": "8724580",
        "station_name": "Key West",
        "state": "FL",
        "lon": -81.80806,
        "lat": 24.55083,
        "established": "1913-01-18 00:00:00.0",
        "MLLW": 1.389888,
        "NAVD88": 1.9263360000000005,
        "tideType": "Mixed",
        "waterBody":"NaN",
        "source": "noaa"
    },
    {
        "Unnamed: 0": 86,
        "station_id": "8725110",
        "station_name": "Naples, Gulf of Mexico",
        "state": "FL",
        "lon": -81.8075,
        "lat": 26.131667,
        "established": "1965-03-04 00:00:00.0",
        "MLLW": 0.6522720000000001,
        "NAVD88": 1.344168,
        "tideType": "Mixed",
        "waterBody":"NaN",
        "source": "noaa"
    },
    {
        "Unnamed: 0": 87,
        "station_id": "8725520",
        "station_name": "Fort Myers",
        "state": "FL",
        "lon": -81.87100000000001,
        "lat": 26.648000000000003,
        "established": "1965-03-08 00:00:00.0",
        "MLLW": 1.328928,
        "NAVD88": 1.6459200000000005,
        "tideType": "Mixed",
        "waterBody":"NaN",
        "source": "noaa"
    },
    {
        "Unnamed: 0": 88,
        "station_id": "8726384",
        "station_name": "Port Manatee",
        "state": "FL",
        "lon": -82.5625,
        "lat": 27.638333000000003,
        "established": "1976-03-24 00:00:00.0",
        "MLLW": 0.064008,
        "NAVD88": 0.54864,
        "tideType": "Mixed",
        "waterBody":"NaN",
        "source": "noaa"
    },
    {
        "Unnamed: 0": 89,
        "station_id": "8726520",
        "station_name": "St. Petersburg, Tampa Bay",
        "state": "FL",
        "lon": -82.6269,
        "lat": 27.76061,
        "established": "1946-12-14 00:00:00.0",
        "MLLW": 1.027176,
        "NAVD88": 1.4782799999999998,
        "tideType": "Mixed",
        "waterBody":"NaN",
        "source": "noaa"
    },
    {
        "Unnamed: 0": 90,
        "station_id": "8726607",
        "station_name": "Old Port Tampa",
        "state": "FL",
        "lon": -82.552778,
        "lat": 27.857778000000003,
        "established": "1991-07-17 00:00:00.0",
        "MLLW": 8.616696000000001,
        "NAVD88": 9.131808,
        "tideType": "Mixed",
        "waterBody":"NaN",
        "source": "noaa"
    },
    {
        "Unnamed: 0": 91,
        "station_id": "8726674",
        "station_name": "East Bay",
        "state": "FL",
        "lon": -82.421389,
        "lat": 27.923056,
        "established": "2019-09-09 00:00:00.0",
        "MLLW": 0.048768,
        "NAVD88": 0.603504,
        "tideType": "Mixed",
        "waterBody":"NaN",
        "source": "noaa"
    },
    {
        "Unnamed: 0": 92,
        "station_id": "8726724",
        "station_name": "Clearwater Beach",
        "state": "FL",
        "lon": -82.831694,
        "lat": 27.978306,
        "established": "1973-04-19 00:00:00.0",
        "MLLW": 0.527304,
        "NAVD88": 1.0728959999999998,
        "tideType": "Mixed",
        "waterBody":"NaN",
        "source": "noaa"
    },
    {
        "Unnamed: 0": 93,
        "station_id": "8727520",
        "station_name": "Cedar Key",
        "state": "FL",
        "lon": -83.0317,
        "lat": 29.135,
        "established": "1914-03-12 00:00:00.0",
        "MLLW": 0.54864,
        "NAVD88": 1.237488,
        "tideType": "Mixed",
        "waterBody":"NaN",
        "source": "noaa"
    },
    {
        "Unnamed: 0": 94,
        "station_id": "8728690",
        "station_name": "Apalachicola",
        "state": "FL",
        "lon": -84.980556,
        "lat": 29.724444,
        "established": "1967-05-01 00:00:00.0",
        "MLLW": 1.307592,
        "NAVD88": 1.53924,
        "tideType": "Diurnal",
        "waterBody":"NaN",
        "source": "noaa"
    },
    {
        "Unnamed: 0": 95,
        "station_id": "8729108",
        "station_name": "Panama City",
        "state": "FL",
        "lon": -85.7,
        "lat": 30.15228,
        "established": "1973-02-11 00:00:00.0",
        "MLLW": 1.018032,
        "NAVD88": 1.18872,
        "tideType": "Diurnal",
        "waterBody":"NaN",
        "source": "noaa"
    },
    {
        "Unnamed: 0": 96,
        "station_id": "8729210",
        "station_name": "Panama City Beach",
        "state": "FL",
        "lon": -85.878304,
        "lat": 30.213301,
        "established": "1989-09-20 00:00:00.0",
        "MLLW": 8.2296,
        "NAVD88": 8.394192,
        "tideType": "Diurnal",
        "waterBody":"NaN",
        "source": "noaa"
    },
    {
        "Unnamed: 0": 97,
        "station_id": "8729840",
        "station_name": "Pensacola",
        "state": "FL",
        "lon": -87.21119399999999,
        "lat": 30.404389,
        "established": "1923-04-30 00:00:00.0",
        "MLLW": 2.569464,
        "NAVD88": 2.6670000000000003,
        "tideType": "Diurnal",
        "waterBody":"NaN",
        "source": "noaa"
    },
    {
        "Unnamed: 0": 98,
        "station_id": "8732828",
        "station_name": "Weeks Bay, Mobile Bay",
        "state": "AL",
        "lon": -87.825389,
        "lat": 30.416889,
        "established": "2007-08-23 00:00:00.0",
        "MLLW": 9.214104,
        "NAVD88":"NaN",
        "tideType": "Diurnal",
        "waterBody":"NaN",
        "source": "noaa"
    },
    {
        "Unnamed: 0": 99,
        "station_id": "8735180",
        "station_name": "Dauphin Island",
        "state": "AL",
        "lon": -88.075,
        "lat": 30.25,
        "established": "1966-03-30 00:00:00.0",
        "MLLW": 0.8747760000000001,
        "NAVD88": 1.0332720000000002,
        "tideType": "Diurnal",
        "waterBody":"NaN",
        "source": "noaa"
    },
    {
        "Unnamed: 0": 100,
        "station_id": "8735391",
        "station_name": "Dog River Bridge",
        "state": "AL",
        "lon": -88.088,
        "lat": 30.565167,
        "established": "2010-09-08 00:00:00.0",
        "MLLW": 8.820912000000002,
        "NAVD88":"NaN",
        "tideType": "Diurnal",
        "waterBody":"NaN",
        "source": "noaa"
    },
    {
        "Unnamed: 0": 101,
        "station_id": "8735523",
        "station_name": "East Fowl River Bridge",
        "state": "AL",
        "lon": -88.113889,
        "lat": 30.443611,
        "established": "1980-03-24 00:00:00.0",
        "MLLW": 4.108704,
        "NAVD88": 4.3068240000000015,
        "tideType": "Diurnal",
        "waterBody":"NaN",
        "source": "noaa"
    },
    {
        "Unnamed: 0": 102,
        "station_id": "8736897",
        "station_name": "Coast Guard Sector Mobile",
        "state": "AL",
        "lon": -88.058306,
        "lat": 30.648306,
        "established": "2007-08-03 00:00:00.0",
        "MLLW": 8.726424,
        "NAVD88": 8.887967999999999,
        "tideType": "Diurnal",
        "waterBody":"NaN",
        "source": "noaa"
    },
    {
        "Unnamed: 0": 103,
        "station_id": "8737048",
        "station_name": "Mobile State Docks",
        "state": "AL",
        "lon": -88.03961,
        "lat": 30.70461,
        "established": "1980-03-24 00:00:00.0",
        "MLLW": 0.451104,
        "NAVD88": 0.600456,
        "tideType": "Diurnal",
        "waterBody":"NaN",
        "source": "noaa"
    },
    {
        "Unnamed: 0": 104,
        "station_id": "8737138",
        "station_name": "Chickasaw Creek",
        "state": "AL",
        "lon": -88.07361,
        "lat": 30.7819,
        "established": "2011-04-22 00:00:00.0",
        "MLLW": 7.491983999999999,
        "NAVD88": 7.629144000000001,
        "tideType": "Diurnal",
        "waterBody":"NaN",
        "source": "noaa"
    },
    {
        "Unnamed: 0": 105,
        "station_id": "8738043",
        "station_name": "West Fowl River Bridge",
        "state": "AL",
        "lon": -88.158556,
        "lat": 30.376639,
        "established": "2011-04-22 00:00:00.0",
        "MLLW": 5.9375040000000014,
        "NAVD88": 6.1722,
        "tideType": "Diurnal",
        "waterBody":"NaN",
        "source": "noaa"
    },
    {
        "Unnamed: 0": 106,
        "station_id": "8739803",
        "station_name": "Bayou La Batre Bridge",
        "state": "AL",
        "lon": -88.24780600000001,
        "lat": 30.40625,
        "established": "2011-04-22 00:00:00.0",
        "MLLW": 8.1534,
        "NAVD88": 8.375904,
        "tideType": "Diurnal",
        "waterBody":"NaN",
        "source": "noaa"
    },
    {
        "Unnamed: 0": 107,
        "station_id": "8740166",
        "station_name": "Grand Bay NERR, Mississippi Sound",
        "state": "MS",
        "lon": -88.402889,
        "lat": 30.413194,
        "established": "2010-05-10 00:00:00.0",
        "MLLW": 4.297680000000001,
        "NAVD88": 4.48056,
        "tideType": "Diurnal",
        "waterBody":"NaN",
        "source": "noaa"
    },
    {
        "Unnamed: 0": 108,
        "station_id": "8741533",
        "station_name": "Pascagoula NOAA Lab",
        "state": "MS",
        "lon": -88.56306,
        "lat": 30.36778,
        "established": "2005-09-13 00:00:00.0",
        "MLLW": 6.669024,
        "NAVD88": 6.870191999999999,
        "tideType": "Diurnal",
        "waterBody":"NaN",
        "source": "noaa"
    },
    {
        "Unnamed: 0": 109,
        "station_id": "8747437",
        "station_name": "Bay Waveland Yacht Club",
        "state": "MS",
        "lon": -89.325,
        "lat": 30.325,
        "established": "1978-05-31 00:00:00.0",
        "MLLW": 0.7345680000000001,
        "NAVD88": 0.947928,
        "tideType": "Diurnal",
        "waterBody":"NaN",
        "source": "noaa"
    },
    {
        "Unnamed: 0": 110,
        "station_id": "8760721",
        "station_name": "Pilottown",
        "state": "LA",
        "lon": -89.258306,
        "lat": 29.178306,
        "established": "1980-12-19 00:00:00.0",
        "MLLW": 1.78308,
        "NAVD88":"NaN",
        "tideType": "Diurnal",
        "waterBody":"NaN",
        "source": "noaa"
    },
    {
        "Unnamed: 0": 111,
        "station_id": "8760922",
        "station_name": "Pilots Station East, S.W. Pass",
        "state": "LA",
        "lon": -89.4075,
        "lat": 28.932222,
        "established": "2004-03-08 00:00:00.0",
        "MLLW": 9.400032,
        "NAVD88":"NaN",
        "tideType": "Diurnal",
        "waterBody":"NaN",
        "source": "noaa"
    },
    {
        "Unnamed: 0": 112,
        "station_id": "8761305",
        "station_name": "Shell Beach",
        "state": "LA",
        "lon": -89.67299999999999,
        "lat": 29.8683,
        "established": "1979-11-07 00:00:00.0",
        "MLLW": 9.55548,
        "NAVD88": 9.774936,
        "tideType": "Diurnal",
        "waterBody":"NaN",
        "source": "noaa"
    },
    {
        "Unnamed: 0": 113,
        "station_id": "8761724",
        "station_name": "Grand Isle",
        "state": "LA",
        "lon": -89.95700000000001,
        "lat": 29.263,
        "established": "1979-11-09 00:00:00.0",
        "MLLW": 1.93548,
        "NAVD88":"NaN",
        "tideType": "Diurnal",
        "waterBody":"NaN",
        "source": "noaa"
    },
    {
        "Unnamed: 0": 114,
        "station_id": "8761927",
        "station_name": "New Canal Station",
        "state": "LA",
        "lon": -90.113333,
        "lat": 30.027222,
        "established": "1982-11-21 00:00:00.0",
        "MLLW": 1.31064,
        "NAVD88": 1.3807440000000002,
        "tideType": "Diurnal",
        "waterBody":"NaN",
        "source": "noaa"
    },
    {
        "Unnamed: 0": 115,
        "station_id": "8761955",
        "station_name": "Carrollton",
        "state": "LA",
        "lon": -90.135472,
        "lat": 29.9329,
        "established": "1996-05-15 00:00:00.0",
        "MLLW":"NaN",
        "NAVD88": -0.13716,
        "tideType": "Diurnal",
        "waterBody":"NaN",
        "source": "noaa"
    },
    {
        "Unnamed: 0": 116,
        "station_id": "8762075",
        "station_name": "Port Fourchon, Belle Pass",
        "state": "LA",
        "lon": -90.19925,
        "lat": 29.11425,
        "established": "2003-07-19 00:00:00.0",
        "MLLW": 9.116568,
        "NAVD88":"NaN",
        "tideType": "Diurnal",
        "waterBody":"NaN",
        "source": "noaa"
    },
    {
        "Unnamed: 0": 117,
        "station_id": "8762482",
        "station_name": "West Bank 1, Bayou Gauche",
        "state": "LA",
        "lon": -90.420278,
        "lat": 29.788611,
        "established": "2003-05-02 00:00:00.0",
        "MLLW":"NaN",
        "NAVD88": 9.607296,
        "tideType": "Diurnal",
        "waterBody":"NaN",
        "source": "noaa"
    },
    {
        "Unnamed: 0": 118,
        "station_id": "8762483",
        "station_name": "I-10 Bonnet Carre Floodway",
        "state": "LA",
        "lon": -90.389972,
        "lat": 30.067861,
        "established": "2015-04-27 00:00:00.0",
        "MLLW": -0.036576,
        "NAVD88":"NaN",
        "tideType": "Diurnal",
        "waterBody":"NaN",
        "source": "noaa"
    },
    {
        "Unnamed: 0": 119,
        "station_id": "8764044",
        "station_name": "Berwick, Atchafalaya River",
        "state": "LA",
        "lon": -91.237611,
        "lat": 29.6675,
        "established": "2003-07-24 00:00:00.0",
        "MLLW": 5.971032,
        "NAVD88": 5.4681120000000005,
        "tideType": "Diurnal",
        "waterBody":"NaN",
        "source": "noaa"
    },
    {
        "Unnamed: 0": 120,
        "station_id": "8764227",
        "station_name": "LAWMA, Amerada Pass",
        "state": "LA",
        "lon": -91.338111,
        "lat": 29.449611,
        "established": "2005-11-01 00:00:00.0",
        "MLLW": 7.141464,
        "NAVD88": 7.421880000000002,
        "tideType": "Diurnal",
        "waterBody":"NaN",
        "source": "noaa"
    },
    {
        "Unnamed: 0": 121,
        "station_id": "8764314",
        "station_name": "Eugene Island, North of , Gulf of Mexico",
        "state": "LA",
        "lon": -91.3839,
        "lat": 29.37306,
        "established": "2014-11-15 00:00:00.0",
        "MLLW": 3.745992,
        "NAVD88":"NaN",
        "tideType": "Diurnal",
        "waterBody":"NaN",
        "source": "noaa"
    },
    {
        "Unnamed: 0": 122,
        "station_id": "8766072",
        "station_name": "Freshwater Canal Locks",
        "state": "LA",
        "lon": -92.305194,
        "lat": 29.551694,
        "established": "2005-08-03 00:00:00.0",
        "MLLW": 6.403848000000001,
        "NAVD88": 6.775703999999999,
        "tideType": "Diurnal",
        "waterBody":"NaN",
        "source": "noaa"
    },
    {
        "Unnamed: 0": 123,
        "station_id": "8767816",
        "station_name": "Lake Charles",
        "state": "LA",
        "lon": -93.221667,
        "lat": 30.223611,
        "established": "1932-03-01 00:00:00.0",
        "MLLW": 8.043672,
        "NAVD88": 8.247888,
        "tideType": "Diurnal",
        "waterBody":"NaN",
        "source": "noaa"
    },
    {
        "Unnamed: 0": 124,
        "station_id": "8767961",
        "station_name": "Bulk Terminal",
        "state": "LA",
        "lon": -93.300806,
        "lat": 30.190194,
        "established": "2009-02-10 00:00:00.0",
        "MLLW": 7.037832000000001,
        "NAVD88": 7.232903999999999,
        "tideType": "Diurnal",
        "waterBody":"NaN",
        "source": "noaa"
    },
    {
        "Unnamed: 0": 125,
        "station_id": "8768094",
        "station_name": "Calcasieu Pass",
        "state": "LA",
        "lon": -93.342889,
        "lat": 29.768167,
        "established": "1933-02-21 00:00:00.0",
        "MLLW": 8.193024000000001,
        "NAVD88": 8.622792,
        "tideType": "Diurnal",
        "waterBody":"NaN",
        "source": "noaa"
    },
    {
        "Unnamed: 0": 126,
        "station_id": "8770475",
        "station_name": "Port Arthur",
        "state": "TX",
        "lon": -93.931,
        "lat": 29.867083,
        "established": "1996-04-01 00:00:00.0",
        "MLLW": 1.4051280000000002,
        "NAVD88": 1.517904,
        "tideType": "Diurnal",
        "waterBody":"NaN",
        "source": "noaa"
    },
    {
        "Unnamed: 0": 127,
        "station_id": "8770520",
        "station_name": "Rainbow Bridge",
        "state": "TX",
        "lon": -93.881699,
        "lat": 29.98,
        "established": "1993-08-04 00:00:00.0",
        "MLLW": 1.170432,
        "NAVD88": 1.298448,
        "tideType": "Diurnal",
        "waterBody":"NaN",
        "source": "noaa"
    },
    {
        "Unnamed: 0": 128,
        "station_id": "8770613",
        "station_name": "Morgans Point, Barbours Cut",
        "state": "TX",
        "lon": -94.985,
        "lat": 29.681694,
        "established": "1973-06-18 00:00:00.0",
        "MLLW": 1.563624,
        "NAVD88": 1.5605760000000002,
        "tideType": "Diurnal",
        "waterBody":"NaN",
        "source": "noaa"
    },
    {
        "Unnamed: 0": 129,
        "station_id": "8770777",
        "station_name": "Manchester",
        "state": "TX",
        "lon": -95.265778,
        "lat": 29.726222,
        "established": "1995-01-01 00:00:00.0",
        "MLLW": 1.682496,
        "NAVD88": 1.642872,
        "tideType": "Diurnal",
        "waterBody":"NaN",
        "source": "noaa"
    },
    {
        "Unnamed: 0": 130,
        "station_id": "8770808",
        "station_name": "High Island",
        "state": "TX",
        "lon": -94.39028,
        "lat": 29.59472,
        "established": "2012-11-25 00:00:00.0",
        "MLLW": 4.0203120000000006,
        "NAVD88": 4.224528,
        "tideType": "Diurnal",
        "waterBody":"NaN",
        "source": "noaa"
    },
    {
        "Unnamed: 0": 131,
        "station_id": "8770822",
        "station_name": "Texas Point, Sabine Pass",
        "state": "TX",
        "lon": -93.841917,
        "lat": 29.689389,
        "established": "2011-06-28 00:00:00.0",
        "MLLW": 0.969264,
        "NAVD88": 1.31064,
        "tideType": "Diurnal",
        "waterBody":"NaN",
        "source": "noaa"
    },
    {
        "Unnamed: 0": 132,
        "station_id": "8770971",
        "station_name": "Rollover Pass",
        "state": "TX",
        "lon": -94.513,
        "lat": 29.515,
        "established": "2004-02-24 00:00:00.0",
        "MLLW": 0.97536,
        "NAVD88": 1.200912,
        "tideType": "Diurnal",
        "waterBody":"NaN",
        "source": "noaa"
    },
    {
        "Unnamed: 0": 133,
        "station_id": "8771013",
        "station_name": "Eagle Point, Galveston Bay",
        "state": "TX",
        "lon": -94.918306,
        "lat": 29.48,
        "established": "1973-06-14 00:00:00.0",
        "MLLW": 1.301496,
        "NAVD88":"NaN",
        "tideType": "Diurnal",
        "waterBody":"NaN",
        "source": "noaa"
    },
    {
        "Unnamed: 0": 134,
        "station_id": "8771341",
        "station_name": "Galveston Bay Entrance, North Jetty",
        "state": "TX",
        "lon": -94.7248,
        "lat": 29.3573,
        "established": "2000-04-17 00:00:00.0",
        "MLLW": 2.770632,
        "NAVD88": 2.94132,
        "tideType": "Diurnal",
        "waterBody":"NaN",
        "source": "noaa"
    },
    {
        "Unnamed: 0": 135,
        "station_id": "8771450",
        "station_name": "Galveston Pier 21",
        "state": "TX",
        "lon": -94.793306,
        "lat": 29.31,
        "established": "1904-01-01 00:00:00.0",
        "MLLW": 1.335024,
        "NAVD88": 1.429512,
        "tideType": "Diurnal",
        "waterBody":"NaN",
        "source": "noaa"
    },
    {
        "Unnamed: 0": 136,
        "station_id": "8771486",
        "station_name": "Galveston Railroad Bridge",
        "state": "TX",
        "lon": -94.897083,
        "lat": 29.302583,
        "established": "2012-09-01 00:00:00.0",
        "MLLW": 5.9283600000000005,
        "NAVD88": 6.03504,
        "tideType": "Diurnal",
        "waterBody":"NaN",
        "source": "noaa"
    },
    {
        "Unnamed: 0": 137,
        "station_id": "8771972",
        "station_name": "San Luis Pass",
        "state": "TX",
        "lon": -95.113306,
        "lat": 29.095,
        "established": "1998-01-29 00:00:00.0",
        "MLLW": 1.2771120000000002,
        "NAVD88": 1.399032,
        "tideType": "Diurnal",
        "waterBody":"NaN",
        "source": "noaa"
    },
    {
        "Unnamed: 0": 138,
        "station_id": "8772471",
        "station_name": "Freeport SPIP, Freeport Harbor",
        "state": "TX",
        "lon": -95.294197,
        "lat": 28.935699,
        "established": "2016-06-24 00:00:00.0",
        "MLLW": 8.375904,
        "NAVD88": 8.62584,
        "tideType": "Diurnal",
        "waterBody":"NaN",
        "source": "noaa"
    },
    {
        "Unnamed: 0": 139,
        "station_id": "8772985",
        "station_name": "Sargent",
        "state": "TX",
        "lon": -95.617167,
        "lat": 28.771417,
        "established": "2012-11-08 00:00:00.0",
        "MLLW": 9.482328,
        "NAVD88": 9.3726,
        "tideType": "Diurnal",
        "waterBody":"NaN",
        "source": "noaa"
    },
    {
        "Unnamed: 0": 140,
        "station_id": "8773037",
        "station_name": "Seadrift",
        "state": "TX",
        "lon": -96.712402,
        "lat": 28.4069,
        "established": "2004-02-09 00:00:00.0",
        "MLLW": 0.3901440000000001,
        "NAVD88": 0.088392,
        "tideType": "Diurnal",
        "waterBody":"NaN",
        "source": "noaa"
    },
    {
        "Unnamed: 0": 141,
        "station_id": "8773146",
        "station_name": "Matagorda City",
        "state": "TX",
        "lon": -95.914,
        "lat": 28.71006,
        "established": "2012-10-11 00:00:00.0",
        "MLLW": 9.40308,
        "NAVD88": 9.23544,
        "tideType": "Diurnal",
        "waterBody":"NaN",
        "source": "noaa"
    },
    {
        "Unnamed: 0": 142,
        "station_id": "8773259",
        "station_name": "Port Lavaca",
        "state": "TX",
        "lon": -96.609802,
        "lat": 28.6406,
        "established": "1989-01-28 00:00:00.0",
        "MLLW": 0.9144,
        "NAVD88":"NaN",
        "tideType": "Diurnal",
        "waterBody":"NaN",
        "source": "noaa"
    },
    {
        "Unnamed: 0": 143,
        "station_id": "8773701",
        "station_name": "Port O'Connor",
        "state": "TX",
        "lon": -96.395556,
        "lat": 28.445861,
        "established": "1989-01-28 00:00:00.0",
        "MLLW": 3.477768,
        "NAVD88": 3.3619440000000003,
        "tideType": "Diurnal",
        "waterBody":"NaN",
        "source": "noaa"
    },
    {
        "Unnamed: 0": 144,
        "station_id": "8773767",
        "station_name": "Matagorda Bay Entrance Channel",
        "state": "TX",
        "lon": -96.330101,
        "lat": 28.426901,
        "established": "2014-09-18 00:00:00.0",
        "MLLW": 7.735824000000001,
        "NAVD88": 7.8486,
        "tideType": "Diurnal",
        "waterBody":"NaN",
        "source": "noaa"
    },
    {
        "Unnamed: 0": 145,
        "station_id": "8774230",
        "station_name": "Aransas Wildlife Refuge",
        "state": "TX",
        "lon": -96.794998,
        "lat": 28.2283,
        "established": "2012-10-09 00:00:00.0",
        "MLLW": 8.823960000000001,
        "NAVD88": 8.5344,
        "tideType": "Diurnal",
        "waterBody":"NaN",
        "source": "noaa"
    },
    {
        "Unnamed: 0": 146,
        "station_id": "8775237",
        "station_name": "Port Aransas",
        "state": "TX",
        "lon": -97.072502,
        "lat": 27.839701,
        "established": "1990-05-25 00:00:00.0",
        "MLLW": 1.4051280000000002,
        "NAVD88": 1.450848,
        "tideType": "Diurnal",
        "waterBody":"NaN",
        "source": "noaa"
    },
    {
        "Unnamed: 0": 147,
        "station_id": "8775241",
        "station_name": "Aransas, Aransas Pass",
        "state": "TX",
        "lon": -97.039101,
        "lat": 27.836599,
        "established": "2016-08-01 00:00:00.0",
        "MLLW": 7.351776000000001,
        "NAVD88": 7.531608,
        "tideType": "Diurnal",
        "waterBody":"NaN",
        "source": "noaa"
    },
    {
        "Unnamed: 0": 148,
        "station_id": "8775244",
        "station_name": "Nueces Bay",
        "state": "TX",
        "lon": -97.485944,
        "lat": 27.83275,
        "established": "2010-01-25 00:00:00.0",
        "MLLW": 7.424927999999999,
        "NAVD88":"NaN",
        "tideType": "Diurnal",
        "waterBody":"NaN",
        "source": "noaa"
    },
    {
        "Unnamed: 0": 149,
        "station_id": "8775296",
        "station_name": "USS Lexington, Corpus Christi Bay",
        "state": "TX",
        "lon": -97.39,
        "lat": 27.811694,
        "established": "2004-01-08 00:00:00.0",
        "MLLW": 1.408176,
        "NAVD88": 1.2801600000000002,
        "tideType": "Diurnal",
        "waterBody":"NaN",
        "source": "noaa"
    },
    {
        "Unnamed: 0": 150,
        "station_id": "8775792",
        "station_name": "Packery Channel",
        "state": "TX",
        "lon": -97.236694,
        "lat": 27.633306,
        "established": "1988-11-30 00:00:00.0",
        "MLLW": 0.865632,
        "NAVD88": 0.7528560000000001,
        "tideType": "Diurnal",
        "waterBody":"NaN",
        "source": "noaa"
    },
    {
        "Unnamed: 0": 151,
        "station_id": "8775870",
        "station_name": "Bob Hall Pier, Corpus Christi",
        "state": "TX",
        "lon": -97.216389,
        "lat": 27.580833,
        "established": "1983-05-09 00:00:00.0",
        "MLLW": 6.342887999999999,
        "NAVD88": 6.495288,
        "tideType": "Diurnal",
        "waterBody":"NaN",
        "source": "noaa"
    },
    {
        "Unnamed: 0": 152,
        "station_id": "8776139",
        "station_name": "S. Bird Island",
        "state": "TX",
        "lon": -97.318111,
        "lat": 27.484361,
        "established": "2003-12-17 00:00:00.0",
        "MLLW":"NaN",
        "NAVD88": 0.454152,
        "tideType": "Diurnal",
        "waterBody":"NaN",
        "source": "noaa"
    },
    {
        "Unnamed: 0": 153,
        "station_id": "8776604",
        "station_name": "Baffin Bay",
        "state": "TX",
        "lon": -97.405167,
        "lat": 27.297,
        "established": "1998-11-17 00:00:00.0",
        "MLLW":"NaN",
        "NAVD88": 4.005072,
        "tideType": "Diurnal",
        "waterBody":"NaN",
        "source": "noaa"
    },
    {
        "Unnamed: 0": 154,
        "station_id": "8777812",
        "station_name": "Rincon Del San Jose",
        "state": "TX",
        "lon": -97.4706,
        "lat": 26.801194,
        "established": "1990-03-04 00:00:00.0",
        "MLLW":"NaN",
        "NAVD88": 1.00584,
        "tideType": "Diurnal",
        "waterBody":"NaN",
        "source": "noaa"
    },
    {
        "Unnamed: 0": 155,
        "station_id": "8778490",
        "station_name": "Port Mansfield",
        "state": "TX",
        "lon": -97.425722,
        "lat": 26.557639,
        "established": "1962-08-11 00:00:00.0",
        "MLLW":"NaN",
        "NAVD88": 0.664464,
        "tideType": "Diurnal",
        "waterBody":"NaN",
        "source": "noaa"
    },
    {
        "Unnamed: 0": 156,
        "station_id": "8779280",
        "station_name": "Realitos Peninsula",
        "state": "TX",
        "lon": -97.285278,
        "lat": 26.2625,
        "established": "2009-02-23 00:00:00.0",
        "MLLW": 4.760976,
        "NAVD88":"NaN",
        "tideType": "Diurnal",
        "waterBody":"NaN",
        "source": "noaa"
    },
    {
        "Unnamed: 0": 157,
        "station_id": "8779748",
        "station_name": "South Padre Island CG Station",
        "state": "TX",
        "lon": -97.166861,
        "lat": 26.072472,
        "established": "1993-04-15 00:00:00.0",
        "MLLW": 1.106424,
        "NAVD88": 1.389888,
        "tideType": "Diurnal",
        "waterBody":"NaN",
        "source": "noaa"
    },
    {
        "Unnamed: 0": 158,
        "station_id": "8779749",
        "station_name": "SPI Brazos Santiago",
        "state": "TX",
        "lon": -97.154722,
        "lat": 26.0675,
        "established": "2016-08-01 00:00:00.0",
        "MLLW": 7.3944480000000015,
        "NAVD88": 7.754112000000001,
        "tideType": "Diurnal",
        "waterBody":"NaN",
        "source": "noaa"
    },
    {
        "Unnamed: 0": 159,
        "station_id": "8779770",
        "station_name": "Port Isabel",
        "state": "TX",
        "lon": -97.215528,
        "lat": 26.061167,
        "established": "1944-03-31 00:00:00.0",
        "MLLW": 1.176528,
        "NAVD88": 1.435608,
        "tideType": "Diurnal",
        "waterBody":"NaN",
        "source": "noaa"
    },
    {
        "Unnamed: 0": 160,
        "station_id": "9014070",
        "station_name": "Algonac",
        "state": "MI",
        "lon": -82.52666500000001,
        "lat": 42.621113,
        "established": "1926-07-01 00:00:00.0",
        "MLLW":"NaN",
        "NAVD88":"NaN",
        "tideType": "Great Lakes",
        "waterBody":"NaN",
        "source": "noaa"
    },
    {
        "Unnamed: 0": 161,
        "station_id": "9014080",
        "station_name": "St. Clair State Police",
        "state": "MI",
        "lon": -82.485558,
        "lat": 42.812222,
        "established": "1971-01-01 00:00:00.0",
        "MLLW":"NaN",
        "NAVD88":"NaN",
        "tideType": "Great Lakes",
        "waterBody":"NaN",
        "source": "noaa"
    },
    {
        "Unnamed: 0": 162,
        "station_id": "9014087",
        "station_name": "Dry Dock",
        "state": "MI",
        "lon": -82.443333,
        "lat": 42.945278,
        "established": "1899-03-01 00:00:00.0",
        "MLLW":"NaN",
        "NAVD88":"NaN",
        "tideType": "Great Lakes",
        "waterBody":"NaN",
        "source": "noaa"
    },
    {
        "Unnamed: 0": 163,
        "station_id": "9014090",
        "station_name": "Mouth of the Black River",
        "state": "MI",
        "lon": -82.418892,
        "lat": 42.974724,
        "established": "1900-01-01 00:00:00.0",
        "MLLW":"NaN",
        "NAVD88":"NaN",
        "tideType": "Great Lakes",
        "waterBody":"NaN",
        "source": "noaa"
    },
    {
        "Unnamed: 0": 164,
        "station_id": "9014096",
        "station_name": "Dunn Paper",
        "state": "MI",
        "lon": -82.4217,
        "lat": 43.0033,
        "established": "1955-02-01 00:00:00.0",
        "MLLW":"NaN",
        "NAVD88":"NaN",
        "tideType": "Great Lakes",
        "waterBody":"NaN",
        "source": "noaa"
    },
    {
        "Unnamed: 0": 165,
        "station_id": "9014098",
        "station_name": "Fort Gratiot",
        "state": "MI",
        "lon": -82.4225,
        "lat": 43.0069,
        "established": "1970-01-01 00:00:00.0",
        "MLLW":"NaN",
        "NAVD88":"NaN",
        "tideType": "Great Lakes",
        "waterBody":"NaN",
        "source": "noaa"
    },
    {
        "Unnamed: 0": 166,
        "station_id": "9034052",
        "station_name": "St Clair Shores",
        "state": "MI",
        "lon": -82.87925,
        "lat": 42.473222,
        "established": "1968-03-01 00:00:00.0",
        "MLLW":"NaN",
        "NAVD88":"NaN",
        "tideType": "Great Lakes",
        "waterBody":"NaN",
        "source": "noaa"
    },
    {
        "Unnamed: 0": 167,
        "station_id": "9044020",
        "station_name": "Gibraltar",
        "state": "MI",
        "lon": -83.18669399999999,
        "lat": 42.091694,
        "established": "1989-11-08 00:00:00.0",
        "MLLW":"NaN",
        "NAVD88":"NaN",
        "tideType": "Great Lakes",
        "waterBody":"NaN",
        "source": "noaa"
    },
    {
        "Unnamed: 0": 168,
        "station_id": "9044030",
        "station_name": "Wyandotte",
        "state": "MI",
        "lon": -83.1475,
        "lat": 42.202306,
        "established": "1930-05-01 00:00:00.0",
        "MLLW":"NaN",
        "NAVD88":"NaN",
        "tideType": "Great Lakes",
        "waterBody":"NaN",
        "source": "noaa"
    },
    {
        "Unnamed: 0": 169,
        "station_id": "9044036",
        "station_name": "Fort Wayne",
        "state": "MI",
        "lon": -83.0933,
        "lat": 42.2983,
        "established": "1970-01-01 00:00:00.0",
        "MLLW":"NaN",
        "NAVD88":"NaN",
        "tideType": "Great Lakes",
        "waterBody":"NaN",
        "source": "noaa"
    },
    {
        "Unnamed: 0": 170,
        "station_id": "9044049",
        "station_name": "Windmill Point",
        "state": "MI",
        "lon": -82.93,
        "lat": 42.357498,
        "established": "1897-06-01 00:00:00.0",
        "MLLW":"NaN",
        "NAVD88":"NaN",
        "tideType": "Great Lakes",
        "waterBody":"NaN",
        "source": "noaa"
    },
    {
        "Unnamed: 0": 171,
        "station_id": "9052000",
        "station_name": "Cape Vincent",
        "state": "NY",
        "lon": -76.332,
        "lat": 44.13028,
        "established": "1916-01-01 00:00:00.0",
        "MLLW":"NaN",
        "NAVD88":"NaN",
        "tideType": "Great Lakes",
        "waterBody":"NaN",
        "source": "noaa"
    },
    {
        "Unnamed: 0": 172,
        "station_id": "9052030",
        "station_name": "Oswego",
        "state": "NY",
        "lon": -76.51183,
        "lat": 43.46417,
        "established": "1990-06-06 00:00:00.0",
        "MLLW":"NaN",
        "NAVD88":"NaN",
        "tideType": "Great Lakes",
        "waterBody":"NaN",
        "source": "noaa"
    },
    {
        "Unnamed: 0": 173,
        "station_id": "9052058",
        "station_name": "Rochester",
        "state": "NY",
        "lon": -77.62575,
        "lat": 43.26903,
        "established": "1860-01-01 00:00:00.0",
        "MLLW":"NaN",
        "NAVD88":"NaN",
        "tideType": "Great Lakes",
        "waterBody":"NaN",
        "source": "noaa"
    },
    {
        "Unnamed: 0": 174,
        "station_id": "9052076",
        "station_name": "Olcott",
        "state": "NY",
        "lon": -78.7273,
        "lat": 43.33839,
        "established": "1967-01-01 00:00:00.0",
        "MLLW":"NaN",
        "NAVD88":"NaN",
        "tideType": "Great Lakes",
        "waterBody":"NaN",
        "source": "noaa"
    },
    {
        "Unnamed: 0": 175,
        "station_id": "9063007",
        "station_name": "Ashland Ave",
        "state": "NY",
        "lon": -79.059917,
        "lat": 43.1,
        "established": "1957-06-01 00:00:00.0",
        "MLLW":"NaN",
        "NAVD88":"NaN",
        "tideType": "Great Lakes",
        "waterBody":"NaN",
        "source": "noaa"
    },
    {
        "Unnamed: 0": 176,
        "station_id": "9063009",
        "station_name": "American Falls",
        "state": "NY",
        "lon": -79.061361,
        "lat": 43.08106,
        "established": "1900-01-01 00:00:00.0",
        "MLLW":"NaN",
        "NAVD88":"NaN",
        "tideType": "Great Lakes",
        "waterBody":"NaN",
        "source": "noaa"
    },
    {
        "Unnamed: 0": 177,
        "station_id": "9063012",
        "station_name": "Niagara Intake",
        "state": "NY",
        "lon": -79.013889,
        "lat": 43.076917,
        "established": "1963-01-01 00:00:00.0",
        "MLLW":"NaN",
        "NAVD88":"NaN",
        "tideType": "Great Lakes",
        "waterBody":"NaN",
        "source": "noaa"
    },
    {
        "Unnamed: 0": 178,
        "station_id": "9063020",
        "station_name": "Buffalo",
        "state": "NY",
        "lon": -78.890472,
        "lat": 42.877444,
        "established": "1860-04-01 00:00:00.0",
        "MLLW":"NaN",
        "NAVD88":"NaN",
        "tideType": "Great Lakes",
        "waterBody":"NaN",
        "source": "noaa"
    },
    {
        "Unnamed: 0": 179,
        "station_id": "9063028",
        "station_name": "Sturgeon Point",
        "state": "NY",
        "lon": -79.0473,
        "lat": 42.691306,
        "established": "1989-12-05 00:00:00.0",
        "MLLW":"NaN",
        "NAVD88":"NaN",
        "tideType": "Great Lakes",
        "waterBody":"NaN",
        "source": "noaa"
    },
    {
        "Unnamed: 0": 180,
        "station_id": "9063038",
        "station_name": "Erie, Lake Erie",
        "state": "PA",
        "lon": -80.0925,
        "lat": 42.153889,
        "established": "1959-04-01 00:00:00.0",
        "MLLW":"NaN",
        "NAVD88":"NaN",
        "tideType": "Great Lakes",
        "waterBody":"NaN",
        "source": "noaa"
    },
    {
        "Unnamed: 0": 181,
        "station_id": "9063053",
        "station_name": "Fairport",
        "state": "OH",
        "lon": -81.28106,
        "lat": 41.75975,
        "established": "1935-05-04 00:00:00.0",
        "MLLW":"NaN",
        "NAVD88":"NaN",
        "tideType": "Great Lakes",
        "waterBody":"NaN",
        "source": "noaa"
    },
    {
        "Unnamed: 0": 182,
        "station_id": "9063063",
        "station_name": "Cleveland",
        "state": "OH",
        "lon": -81.635472,
        "lat": 41.54086,
        "established": "1860-01-01 00:00:00.0",
        "MLLW":"NaN",
        "NAVD88":"NaN",
        "tideType": "Great Lakes",
        "waterBody":"NaN",
        "source": "noaa"
    },
    {
        "Unnamed: 0": 183,
        "station_id": "9063079",
        "station_name": "Marblehead",
        "state": "OH",
        "lon": -82.73139,
        "lat": 41.54364,
        "established": "1959-05-01 00:00:00.0",
        "MLLW":"NaN",
        "NAVD88":"NaN",
        "tideType": "Great Lakes",
        "waterBody":"NaN",
        "source": "noaa"
    },
    {
        "Unnamed: 0": 184,
        "station_id": "9063085",
        "station_name": "Toledo",
        "state": "OH",
        "lon": -83.47228,
        "lat": 41.69356,
        "established": "1904-08-01 00:00:00.0",
        "MLLW":"NaN",
        "NAVD88":"NaN",
        "tideType": "Great Lakes",
        "waterBody":"NaN",
        "source": "noaa"
    },
    {
        "Unnamed: 0": 185,
        "station_id": "9063090",
        "station_name": "Fermi Power Plant",
        "state": "MI",
        "lon": -83.257,
        "lat": 41.96,
        "established": "1963-09-01 00:00:00.0",
        "MLLW":"NaN",
        "NAVD88":"NaN",
        "tideType": "Great Lakes",
        "waterBody":"NaN",
        "source": "noaa"
    },
    {
        "Unnamed: 0": 186,
        "station_id": "9075002",
        "station_name": "Lakeport",
        "state": "MI",
        "lon": -82.493306,
        "lat": 43.141694,
        "established": "1955-09-01 00:00:00.0",
        "MLLW":"NaN",
        "NAVD88":"NaN",
        "tideType": "Great Lakes",
        "waterBody":"NaN",
        "source": "noaa"
    },
    {
        "Unnamed: 0": 187,
        "station_id": "9075014",
        "station_name": "Harbor Beach",
        "state": "MI",
        "lon": -82.643059,
        "lat": 43.84639,
        "established": "1860-01-01 00:00:00.0",
        "MLLW":"NaN",
        "NAVD88":"NaN",
        "tideType": "Great Lakes",
        "waterBody":"NaN",
        "source": "noaa"
    },
    {
        "Unnamed: 0": 188,
        "station_id": "9075035",
        "station_name": "Essexville",
        "state": "MI",
        "lon": -83.8468,
        "lat": 43.6404,
        "established": "1977-08-01 00:00:00.0",
        "MLLW":"NaN",
        "NAVD88":"NaN",
        "tideType": "Great Lakes",
        "waterBody":"NaN",
        "source": "noaa"
    },
    {
        "Unnamed: 0": 189,
        "station_id": "9075065",
        "station_name": "Alpena",
        "state": "MI",
        "lon": -83.4286,
        "lat": 45.063,
        "established": "2006-04-26 00:00:00.0",
        "MLLW":"NaN",
        "NAVD88":"NaN",
        "tideType": "Great Lakes",
        "waterBody":"NaN",
        "source": "noaa"
    },
    {
        "Unnamed: 0": 190,
        "station_id": "9075080",
        "station_name": "Mackinaw City",
        "state": "MI",
        "lon": -84.72110699999999,
        "lat": 45.8,
        "established": "1900-01-01 00:00:00.0",
        "MLLW":"NaN",
        "NAVD88":"NaN",
        "tideType": "Great Lakes",
        "waterBody":"NaN",
        "source": "noaa"
    },
    {
        "Unnamed: 0": 191,
        "station_id": "9075099",
        "station_name": "De Tour Village",
        "state": "MI",
        "lon": -83.8982,
        "lat": 45.9925,
        "established": "1977-11-01 00:00:00.0",
        "MLLW":"NaN",
        "NAVD88":"NaN",
        "tideType": "Great Lakes",
        "waterBody":"NaN",
        "source": "noaa"
    },
    {
        "Unnamed: 0": 192,
        "station_id": "9076024",
        "station_name": "Rock Cut",
        "state": "MI",
        "lon": -84.191194,
        "lat": 46.264806,
        "established": "2001-10-26 00:00:00.0",
        "MLLW":"NaN",
        "NAVD88":"NaN",
        "tideType": "Great Lakes",
        "waterBody":"NaN",
        "source": "noaa"
    },
    {
        "Unnamed: 0": 193,
        "station_id": "9076027",
        "station_name": "West Neebish Island",
        "state": "MI",
        "lon": -84.205,
        "lat": 46.283306,
        "established": "2006-10-19 00:00:00.0",
        "MLLW":"NaN",
        "NAVD88":"NaN",
        "tideType": "Great Lakes",
        "waterBody":"NaN",
        "source": "noaa"
    },
    {
        "Unnamed: 0": 194,
        "station_id": "9076033",
        "station_name": "Little Rapids",
        "state": "MI",
        "lon": -84.301666,
        "lat": 46.485832,
        "established": "2008-12-17 00:00:00.0",
        "MLLW":"NaN",
        "NAVD88":"NaN",
        "tideType": "Great Lakes",
        "waterBody":"NaN",
        "source": "noaa"
    },
    {
        "Unnamed: 0": 195,
        "station_id": "9076060",
        "station_name": "U.S. Slip",
        "state": "MI",
        "lon": -84.340363,
        "lat": 46.500805,
        "established": "1903-04-01 00:00:00.0",
        "MLLW":"NaN",
        "NAVD88":"NaN",
        "tideType": "Great Lakes",
        "waterBody":"NaN",
        "source": "noaa"
    },
    {
        "Unnamed: 0": 196,
        "station_id": "9076070",
        "station_name": "S.W. Pier, St. Marys River",
        "state": "MI",
        "lon": -84.37261099999999,
        "lat": 46.501111,
        "established": "1860-05-01 00:00:00.0",
        "MLLW":"NaN",
        "NAVD88":"NaN",
        "tideType": "Great Lakes",
        "waterBody":"NaN",
        "source": "noaa"
    },
    {
        "Unnamed: 0": 197,
        "station_id": "9087023",
        "station_name": "Ludington",
        "state": "MI",
        "lon": -86.441611,
        "lat": 43.947361,
        "established": "1895-11-01 00:00:00.0",
        "MLLW":"NaN",
        "NAVD88":"NaN",
        "tideType": "Great Lakes",
        "waterBody":"NaN",
        "source": "noaa"
    },
    {
        "Unnamed: 0": 198,
        "station_id": "9087031",
        "station_name": "Holland",
        "state": "MI",
        "lon": -86.212778,
        "lat": 42.773333,
        "established": "1894-06-01 00:00:00.0",
        "MLLW":"NaN",
        "NAVD88":"NaN",
        "tideType": "Great Lakes",
        "waterBody":"NaN",
        "source": "noaa"
    },
    {
        "Unnamed: 0": 199,
        "station_id": "9087044",
        "station_name": "Calumet Harbor",
        "state": "IL",
        "lon": -87.53833,
        "lat": 41.729721000000005,
        "established": "1905-02-01 00:00:00.0",
        "MLLW":"NaN",
        "NAVD88":"NaN",
        "tideType": "Great Lakes",
        "waterBody":"NaN",
        "source": "noaa"
    },
    {
        "Unnamed: 0": 200,
        "station_id": "9087057",
        "station_name": "Milwaukee",
        "state": "WI",
        "lon": -87.8876,
        "lat": 43.002,
        "established": "1989-09-01 00:00:00.0",
        "MLLW":"NaN",
        "NAVD88":"NaN",
        "tideType": "Great Lakes",
        "waterBody":"NaN",
        "source": "noaa"
    },
    {
        "Unnamed: 0": 201,
        "station_id": "9087068",
        "station_name": "Kewaunee, Lake Michigan",
        "state": "WI",
        "lon": -87.501028,
        "lat": 44.463972,
        "established": "1974-01-01 00:00:00.0",
        "MLLW":"NaN",
        "NAVD88":"NaN",
        "tideType": "Great Lakes",
        "waterBody":"NaN",
        "source": "noaa"
    },
    {
        "Unnamed: 0": 202,
        "station_id": "9087072",
        "station_name": "Sturgeon Bay Canal",
        "state": "WI",
        "lon": -87.31433299999999,
        "lat": 44.795583,
        "established": "1905-01-01 00:00:00.0",
        "MLLW":"NaN",
        "NAVD88":"NaN",
        "tideType": "Great Lakes",
        "waterBody":"NaN",
        "source": "noaa"
    },
    {
        "Unnamed: 0": 203,
        "station_id": "9087077",
        "station_name": "Green Bay East",
        "state": "WI",
        "lon": -88.00106,
        "lat": 44.539028,
        "established": "2009-05-29 00:00:00.0",
        "MLLW":"NaN",
        "NAVD88":"NaN",
        "tideType": "Great Lakes",
        "waterBody":"NaN",
        "source": "noaa"
    },
    {
        "Unnamed: 0": 204,
        "station_id": "9087088",
        "station_name": "Menominee",
        "state": "MI",
        "lon": -87.58994399999999,
        "lat": 45.095889,
        "established": "2005-08-19 00:00:00.0",
        "MLLW":"NaN",
        "NAVD88":"NaN",
        "tideType": "Great Lakes",
        "waterBody":"NaN",
        "source": "noaa"
    },
    {
        "Unnamed: 0": 205,
        "station_id": "9087096",
        "station_name": "Port Inland",
        "state": "MI",
        "lon": -85.8715,
        "lat": 45.969889,
        "established": "1964-12-01 00:00:00.0",
        "MLLW":"NaN",
        "NAVD88":"NaN",
        "tideType": "Great Lakes",
        "waterBody":"NaN",
        "source": "noaa"
    },
    {
        "Unnamed: 0": 206,
        "station_id": "9099004",
        "station_name": "Point Iroquois",
        "state": "MI",
        "lon": -84.630889,
        "lat": 46.4845,
        "established": "1930-11-01 00:00:00.0",
        "MLLW":"NaN",
        "NAVD88":"NaN",
        "tideType": "Great Lakes",
        "waterBody":"NaN",
        "source": "noaa"
    },
    {
        "Unnamed: 0": 207,
        "station_id": "9099018",
        "station_name": "Marquette C.G.",
        "state": "MI",
        "lon": -87.378609,
        "lat": 46.545555,
        "established": "1991-09-23 18:31:40.34",
        "MLLW":"NaN",
        "NAVD88":"NaN",
        "tideType": "Great Lakes",
        "waterBody":"NaN",
        "source": "noaa"
    },
    {
        "Unnamed: 0": 208,
        "station_id": "9099044",
        "station_name": "Ontonagon",
        "state": "MI",
        "lon": -89.32416500000001,
        "lat": 46.874443,
        "established": "1959-08-01 00:00:00.0",
        "MLLW":"NaN",
        "NAVD88":"NaN",
        "tideType": "Great Lakes",
        "waterBody":"NaN",
        "source": "noaa"
    },
    {
        "Unnamed: 0": 209,
        "station_id": "9099064",
        "station_name": "Duluth",
        "state": "MN",
        "lon": -92.092028,
        "lat": 46.77575,
        "established": "1860-04-01 00:00:00.0",
        "MLLW":"NaN",
        "NAVD88":"NaN",
        "tideType": "Great Lakes",
        "waterBody":"NaN",
        "source": "noaa"
    },
    {
        "Unnamed: 0": 210,
        "station_id": "9099090",
        "station_name": "Grand Marais, Lake Superior",
        "state": "MN",
        "lon": -90.34128,
        "lat": 47.7486,
        "established": "1966-01-01 00:00:00.0",
        "MLLW":"NaN",
        "NAVD88":"NaN",
        "tideType": "Great Lakes",
        "waterBody":"NaN",
        "source": "noaa"
    },
    {
        "Unnamed: 0": 211,
        "station_id": "9410170",
        "station_name": "San Diego, San Diego Bay",
        "state": "CA",
        "lon": -117.173583,
        "lat": 32.714194,
        "established": "1906-01-26 00:00:00.0",
        "MLLW": 1.155192,
        "NAVD88": 1.2862559999999998,
        "tideType": "Mixed",
        "waterBody":"NaN",
        "source": "noaa"
    },
    {
        "Unnamed: 0": 212,
        "station_id": "9410230",
        "station_name": "La Jolla",
        "state": "CA",
        "lon": -117.257139,
        "lat": 32.866889,
        "established": "1924-08-01 00:00:00.0",
        "MLLW": 1.331976,
        "NAVD88": 1.389888,
        "tideType": "Mixed",
        "waterBody":"NaN",
        "source": "noaa"
    },
    {
        "Unnamed: 0": 213,
        "station_id": "9410660",
        "station_name": "Los Angeles",
        "state": "CA",
        "lon": -118.272861,
        "lat": 33.719944,
        "established": "1923-11-28 00:00:00.0",
        "MLLW": 1.167384,
        "NAVD88": 1.228344,
        "tideType": "Mixed",
        "waterBody":"NaN",
        "source": "noaa"
    },
    {
        "Unnamed: 0": 214,
        "station_id": "9410840",
        "station_name": "Santa Monica",
        "state": "CA",
        "lon": -118.5,
        "lat": 34.0083,
        "established": "1932-10-01 00:00:00.0",
        "MLLW": 0.743712,
        "NAVD88": 0.801624,
        "tideType": "Mixed",
        "waterBody":"NaN",
        "source": "noaa"
    },
    {
        "Unnamed: 0": 215,
        "station_id": "9411340",
        "station_name": "Santa Barbara",
        "state": "CA",
        "lon": -119.692806,
        "lat": 34.403111,
        "established": "1974-02-26 00:00:00.0",
        "MLLW": 0.957072,
        "NAVD88": 0.996696,
        "tideType": "Mixed",
        "waterBody":"NaN",
        "source": "noaa"
    },
    {
        "Unnamed: 0": 216,
        "station_id": "9411406",
        "station_name": "Oil Platform Harvest",
        "state": "CA",
        "lon": -120.681944,
        "lat": 34.469167,
        "established": "1992-05-13 00:00:00.0",
        "MLLW": 13.673328,
        "NAVD88":"NaN",
        "tideType": "Mixed",
        "waterBody":"NaN",
        "source": "noaa"
    },
    {
        "Unnamed: 0": 217,
        "station_id": "9412110",
        "station_name": "Port San Luis",
        "state": "CA",
        "lon": -120.754194,
        "lat": 35.168806,
        "established": "1933-10-01 00:00:00.0",
        "MLLW": 1.2954,
        "NAVD88": 1.319784,
        "tideType": "Mixed",
        "waterBody":"NaN",
        "source": "noaa"
    },
    {
        "Unnamed: 0": 218,
        "station_id": "9413450",
        "station_name": "Monterey",
        "state": "CA",
        "lon": -121.888054,
        "lat": 36.605,
        "established": "1973-11-04 00:00:00.0",
        "MLLW": 1.030224,
        "NAVD88": 0.987552,
        "tideType": "Mixed",
        "waterBody":"NaN",
        "source": "noaa"
    },
    {
        "Unnamed: 0": 219,
        "station_id": "9414290",
        "station_name": "San Francisco",
        "state": "CA",
        "lon": -122.465889,
        "lat": 37.806306,
        "established": "1854-06-30 00:00:00.0",
        "MLLW": 1.8227040000000003,
        "NAVD88": 1.804416,
        "tideType": "Mixed",
        "waterBody":"NaN",
        "source": "noaa"
    },
    {
        "Unnamed: 0": 220,
        "station_id": "9414523",
        "station_name": "Redwood City",
        "state": "CA",
        "lon": -122.209999,
        "lat": 37.506699,
        "established": "1974-10-09 00:00:00.0",
        "MLLW": 2.054352,
        "NAVD88": 2.414016,
        "tideType": "Mixed",
        "waterBody":"NaN",
        "source": "noaa"
    },
    {
        "Unnamed: 0": 221,
        "station_id": "9414750",
        "station_name": "Alameda",
        "state": "CA",
        "lon": -122.3,
        "lat": 37.7717,
        "established": "1939-03-08 00:00:00.0",
        "MLLW": 1.014984,
        "NAVD88": 1.0850879999999998,
        "tideType": "Mixed",
        "waterBody":"NaN",
        "source": "noaa"
    },
    {
        "Unnamed: 0": 222,
        "station_id": "9414863",
        "station_name": "Richmond",
        "state": "CA",
        "lon": -122.409583,
        "lat": 37.923,
        "established": "1947-07-15 00:00:00.0",
        "MLLW": 3.532632,
        "NAVD88": 3.526536,
        "tideType": "Mixed",
        "waterBody":"NaN",
        "source": "noaa"
    },
    {
        "Unnamed: 0": 223,
        "station_id": "9415020",
        "station_name": "Point Reyes",
        "state": "CA",
        "lon": -122.973611,
        "lat": 37.994167,
        "established": "1975-01-10 00:00:00.0",
        "MLLW": 1.207008,
        "NAVD88": 1.2131040000000002,
        "tideType": "Mixed",
        "waterBody":"NaN",
        "source": "noaa"
    },
    {
        "Unnamed: 0": 224,
        "station_id": "9415102",
        "station_name": "Martinez-Amorco Pier",
        "state": "CA",
        "lon": -122.125194,
        "lat": 38.034639,
        "established": "2009-03-01 00:00:00.0",
        "MLLW": 10.689336,
        "NAVD88": 10.5156,
        "tideType": "Mixed",
        "waterBody":"NaN",
        "source": "noaa"
    },
    {
        "Unnamed: 0": 225,
        "station_id": "9415144",
        "station_name": "Port Chicago",
        "state": "CA",
        "lon": -122.0395,
        "lat": 38.056,
        "established": "1976-06-28 00:00:00.0",
        "MLLW": 1.216152,
        "NAVD88": 0.8808720000000001,
        "tideType": "Mixed",
        "waterBody":"NaN",
        "source": "noaa"
    },
    {
        "Unnamed: 0": 226,
        "station_id": "9416841",
        "station_name": "Arena Cove",
        "state": "CA",
        "lon": -123.711083,
        "lat": 38.914556,
        "established": "1978-04-09 00:00:00.0",
        "MLLW": 8.817864,
        "NAVD88": 8.860536,
        "tideType": "Mixed",
        "waterBody":"NaN",
        "source": "noaa"
    },
    {
        "Unnamed: 0": 227,
        "station_id": "9418767",
        "station_name": "North Spit",
        "state": "CA",
        "lon": -124.2172,
        "lat": 40.7663,
        "established": "1977-08-16 00:00:00.0",
        "MLLW": 4.43484,
        "NAVD88": 4.5384720000000005,
        "tideType": "Mixed",
        "waterBody":"NaN",
        "source": "noaa"
    },
    {
        "Unnamed: 0": 228,
        "station_id": "9419750",
        "station_name": "Crescent City",
        "state": "CA",
        "lon": -124.18439,
        "lat": 41.74561,
        "established": "1933-04-10 00:00:00.0",
        "MLLW": 1.1247120000000002,
        "NAVD88": 1.240536,
        "tideType": "Mixed",
        "waterBody":"NaN",
        "source": "noaa"
    },
    {
        "Unnamed: 0": 229,
        "station_id": "9431647",
        "station_name": "Port Orford",
        "state": "OR",
        "lon": -124.49828,
        "lat": 42.738972,
        "established": "1924-08-07 00:00:00.0",
        "MLLW": 7.043928,
        "NAVD88": 7.168896000000001,
        "tideType": "Mixed",
        "waterBody":"NaN",
        "source": "noaa"
    },
    {
        "Unnamed: 0": 230,
        "station_id": "9432780",
        "station_name": "Charleston",
        "state": "OR",
        "lon": -124.322,
        "lat": 43.345,
        "established": "1964-08-27 00:00:00.0",
        "MLLW": 1.146048,
        "NAVD88": 1.298448,
        "tideType": "Mixed",
        "waterBody":"NaN",
        "source": "noaa"
    },
    {
        "Unnamed: 0": 231,
        "station_id": "9435380",
        "station_name": "South Beach",
        "state": "OR",
        "lon": -124.04494,
        "lat": 44.6254,
        "established": "1967-01-28 00:00:00.0",
        "MLLW": 1.3929360000000002,
        "NAVD88": 1.627632,
        "tideType": "Mixed",
        "waterBody":"NaN",
        "source": "noaa"
    },
    {
        "Unnamed: 0": 232,
        "station_id": "9437540",
        "station_name": "Garibaldi",
        "state": "OR",
        "lon": -123.91894,
        "lat": 45.55453,
        "established": "1866-08-11 00:00:00.0",
        "MLLW": 1.216152,
        "NAVD88":"NaN",
        "tideType": "Mixed",
        "waterBody":"NaN",
        "source": "noaa"
    },
    {
        "Unnamed: 0": 233,
        "station_id": "9439040",
        "station_name": "Astoria",
        "state": "OR",
        "lon": -123.768306,
        "lat": 46.207306,
        "established": "1853-07-10 00:00:00.0",
        "MLLW": 0.679704,
        "NAVD88": 0.615696,
        "tideType": "Mixed",
        "waterBody":"NaN",
        "source": "noaa"
    },
    {
        "Unnamed: 0": 234,
        "station_id": "9439099",
        "station_name": "Wauna",
        "state": "OR",
        "lon": -123.40889,
        "lat": 46.161667,
        "established": "1940-11-05 00:00:00.0",
        "MLLW": 0.3048,
        "NAVD88":"NaN",
        "tideType": "Mixed",
        "waterBody":"NaN",
        "source": "noaa"
    },
    {
        "Unnamed: 0": 235,
        "station_id": "9439201",
        "station_name": "St Helens",
        "state": "OR",
        "lon": -122.7962,
        "lat": 45.8633,
        "established": "1877-09-11 00:00:00.0",
        "MLLW": 0.62484,
        "NAVD88":"NaN",
        "tideType": "Mixed",
        "waterBody":"NaN",
        "source": "noaa"
    },
    {
        "Unnamed: 0": 236,
        "station_id": "9440083",
        "station_name": "Vancouver",
        "state": "WA",
        "lon": -122.697,
        "lat": 45.631694,
        "established": "1938-09-14 00:00:00.0",
        "MLLW": 0.5425439999999999,
        "NAVD88":"NaN",
        "tideType": "Mixed",
        "waterBody":"NaN",
        "source": "noaa"
    },
    {
        "Unnamed: 0": 237,
        "station_id": "9440422",
        "station_name": "Longview",
        "state": "WA",
        "lon": -122.954194,
        "lat": 46.106139,
        "established": "1985-03-23 00:00:00.0",
        "MLLW": 0.7711439999999999,
        "NAVD88":"NaN",
        "tideType": "Mixed",
        "waterBody":"NaN",
        "source": "noaa"
    },
    {
        "Unnamed: 0": 238,
        "station_id": "9440569",
        "station_name": "Skamokawa",
        "state": "WA",
        "lon": -123.4565,
        "lat": 46.270306,
        "established": "1981-07-01 00:00:00.0",
        "MLLW": 0.146304,
        "NAVD88":"NaN",
        "tideType": "Mixed",
        "waterBody":"NaN",
        "source": "noaa"
    },
    {
        "Unnamed: 0": 239,
        "station_id": "9440581",
        "station_name": "Cape Disappointment",
        "state": "WA",
        "lon": -124.04628,
        "lat": 46.281028000000006,
        "established": "2015-04-07 00:00:00.0",
        "MLLW": 15.931896000000002,
        "NAVD88": 16.072104,
        "tideType": "Mixed",
        "waterBody":"NaN",
        "source": "noaa"
    },
    {
        "Unnamed: 0": 240,
        "station_id": "9440910",
        "station_name": "Toke Point",
        "state": "WA",
        "lon": -123.966944,
        "lat": 46.7075,
        "established": "1922-02-20 00:00:00.0",
        "MLLW": 1.3776959999999998,
        "NAVD88": 1.627632,
        "tideType": "Mixed",
        "waterBody":"NaN",
        "source": "noaa"
    },
    {
        "Unnamed: 0": 241,
        "station_id": "9441102",
        "station_name": "Westport",
        "state": "WA",
        "lon": -124.105083,
        "lat": 46.90431,
        "established": "1982-06-07 00:00:00.0",
        "MLLW": 0.9144,
        "NAVD88": 1.255776,
        "tideType": "Mixed",
        "waterBody":"NaN",
        "source": "noaa"
    },
    {
        "Unnamed: 0": 242,
        "station_id": "9442396",
        "station_name": "La Push, Quillayute River",
        "state": "WA",
        "lon": -124.63694,
        "lat": 47.913,
        "established": "1924-12-19 00:00:00.0",
        "MLLW": 1.575816,
        "NAVD88": 2.017776,
        "tideType": "Mixed",
        "waterBody":"NaN",
        "source": "noaa"
    },
    {
        "Unnamed: 0": 243,
        "station_id": "9443090",
        "station_name": "Neah Bay",
        "state": "WA",
        "lon": -124.601944,
        "lat": 48.370278000000006,
        "established": "1934-07-23 00:00:00.0",
        "MLLW": 0.6096,
        "NAVD88": 0.865632,
        "tideType": "Mixed",
        "waterBody":"NaN",
        "source": "noaa"
    },
    {
        "Unnamed: 0": 244,
        "station_id": "9444090",
        "station_name": "Port Angeles",
        "state": "WA",
        "lon": -123.440002,
        "lat": 48.125,
        "established": "1975-08-30 00:00:00.0",
        "MLLW": 9.241536,
        "NAVD88": 9.369552,
        "tideType": "Mixed",
        "waterBody":"NaN",
        "source": "noaa"
    },
    {
        "Unnamed: 0": 245,
        "station_id": "9444900",
        "station_name": "Port Townsend",
        "state": "WA",
        "lon": -122.7595,
        "lat": 48.1129,
        "established": "1971-12-31 00:00:00.0",
        "MLLW": 1.024128,
        "NAVD88":"NaN",
        "tideType": "Mixed",
        "waterBody":"NaN",
        "source": "noaa"
    },
    {
        "Unnamed: 0": 246,
        "station_id": "9446484",
        "station_name": "Tacoma",
        "state": "WA",
        "lon": -122.413,
        "lat": 47.27,
        "established": "1996-07-22 00:00:00.0",
        "MLLW": 0.188976,
        "NAVD88": 0.917448,
        "tideType": "Mixed",
        "waterBody":"NaN",
        "source": "noaa"
    },
    {
        "Unnamed: 0": 247,
        "station_id": "9447130",
        "station_name": "Seattle",
        "state": "WA",
        "lon": -122.339167,
        "lat": 47.601944,
        "established": "1899-01-01 00:00:00.0",
        "MLLW": 2.420112,
        "NAVD88": 3.133344,
        "tideType": "Mixed",
        "waterBody":"NaN",
        "source": "noaa"
    },
    {
        "Unnamed: 0": 248,
        "station_id": "9449424",
        "station_name": "Cherry Point",
        "state": "WA",
        "lon": -122.758,
        "lat": 48.8633,
        "established": "1971-11-07 00:00:00.0",
        "MLLW": 1.932432,
        "NAVD88":"NaN",
        "tideType": "Mixed",
        "waterBody":"NaN",
        "source": "noaa"
    },
    {
        "Unnamed: 0": 249,
        "station_id": "9449880",
        "station_name": "Friday Harbor",
        "state": "WA",
        "lon": -123.012889,
        "lat": 48.545306,
        "established": "1932-01-25 00:00:00.0",
        "MLLW": 1.17348,
        "NAVD88":"NaN",
        "tideType": "Mixed",
        "waterBody":"NaN",
        "source": "noaa"
    },
    {
        "Unnamed: 0": 250,
        "station_id": "9450460",
        "station_name": "Ketchikan",
        "state": "AK",
        "lon": -131.626111,
        "lat": 55.33194399999999,
        "established": "1918-10-01 00:00:00.0",
        "MLLW": 1.886712,
        "NAVD88":"NaN",
        "tideType": "Mixed",
        "waterBody":"NaN",
        "source": "noaa"
    },
    {
        "Unnamed: 0": 251,
        "station_id": "9451054",
        "station_name": "Port Alexander",
        "state": "AK",
        "lon": -134.64772,
        "lat": 56.24661,
        "established": "1924-04-10 00:00:00.0",
        "MLLW": 1.146048,
        "NAVD88": 1.5057120000000002,
        "tideType": "Mixed",
        "waterBody":"NaN",
        "source": "noaa"
    },
    {
        "Unnamed: 0": 252,
        "station_id": "9451600",
        "station_name": "Sitka",
        "state": "AK",
        "lon": -135.342,
        "lat": 57.051694,
        "established": "1938-05-19 00:00:00.0",
        "MLLW": 1.3776959999999998,
        "NAVD88":"NaN",
        "tideType": "Mixed",
        "waterBody":"NaN",
        "source": "noaa"
    },
    {
        "Unnamed: 0": 253,
        "station_id": "9452210",
        "station_name": "Juneau",
        "state": "AK",
        "lon": -134.4106,
        "lat": 58.2988,
        "established": "1936-05-14 00:00:00.0",
        "MLLW": 0.96012,
        "NAVD88":"NaN",
        "tideType": "Mixed",
        "waterBody":"NaN",
        "source": "noaa"
    },
    {
        "Unnamed: 0": 254,
        "station_id": "9452400",
        "station_name": "Skagway, Taiya Inlet",
        "state": "AK",
        "lon": -135.328,
        "lat": 59.4508,
        "established": "1943-08-16 00:00:00.0",
        "MLLW": 0.603504,
        "NAVD88":"NaN",
        "tideType": "Mixed",
        "waterBody":"NaN",
        "source": "noaa"
    },
    {
        "Unnamed: 0": 255,
        "station_id": "9452634",
        "station_name": "Elfin Cove",
        "state": "AK",
        "lon": -136.34694,
        "lat": 58.19472,
        "established": "1938-05-13 00:00:00.0",
        "MLLW": 2.855976,
        "NAVD88":"NaN",
        "tideType": "Mixed",
        "waterBody":"NaN",
        "source": "noaa"
    },
    {
        "Unnamed: 0": 256,
        "station_id": "9453220",
        "station_name": "Yakutat, Yakutat Bay",
        "state": "AK",
        "lon": -139.733056,
        "lat": 59.54833299999999,
        "established": "1940-04-24 00:00:00.0",
        "MLLW": 0.362712,
        "NAVD88": 0.5425439999999999,
        "tideType": "Mixed",
        "waterBody":"NaN",
        "source": "noaa"
    },
    {
        "Unnamed: 0": 257,
        "station_id": "9454050",
        "station_name": "Cordova",
        "state": "AK",
        "lon": -145.755,
        "lat": 60.5583,
        "established": "1949-05-14 00:00:00.0",
        "MLLW": 1.917192,
        "NAVD88":"NaN",
        "tideType": "Mixed",
        "waterBody":"NaN",
        "source": "noaa"
    },
    {
        "Unnamed: 0": 258,
        "station_id": "9454240",
        "station_name": "Valdez",
        "state": "AK",
        "lon": -146.3631,
        "lat": 61.124194,
        "established": "1964-08-15 00:00:00.0",
        "MLLW": 2.054352,
        "NAVD88":"NaN",
        "tideType": "Mixed",
        "waterBody":"NaN",
        "source": "noaa"
    },
    {
        "Unnamed: 0": 259,
        "station_id": "9455090",
        "station_name": "Seward",
        "state": "AK",
        "lon": -149.42666699999998,
        "lat": 60.12,
        "established": "1925-05-01 00:00:00.0",
        "MLLW": 1.871472,
        "NAVD88":"NaN",
        "tideType": "Mixed",
        "waterBody":"NaN",
        "source": "noaa"
    },
    {
        "Unnamed: 0": 260,
        "station_id": "9455500",
        "station_name": "Seldovia",
        "state": "AK",
        "lon": -151.71989399999998,
        "lat": 59.440498,
        "established": "1964-05-24 00:00:00.0",
        "MLLW": 2.0665440000000004,
        "NAVD88":"NaN",
        "tideType": "Mixed",
        "waterBody":"NaN",
        "source": "noaa"
    },
    {
        "Unnamed: 0": 261,
        "station_id": "9455760",
        "station_name": "Nikiski",
        "state": "AK",
        "lon": -151.398056,
        "lat": 60.683333,
        "established": "1971-05-21 00:00:00.0",
        "MLLW": 2.01168,
        "NAVD88": 4.215383999999999,
        "tideType": "Mixed",
        "waterBody":"NaN",
        "source": "noaa"
    },
    {
        "Unnamed: 0": 262,
        "station_id": "9455920",
        "station_name": "Anchorage",
        "state": "AK",
        "lon": -149.8904,
        "lat": 61.2375,
        "established": "1964-04-24 00:00:00.0",
        "MLLW": 1.911096,
        "NAVD88": 5.193792,
        "tideType": "Mixed",
        "waterBody":"NaN",
        "source": "noaa"
    },
    {
        "Unnamed: 0": 263,
        "station_id": "9457292",
        "station_name": "Kodiak Island",
        "state": "AK",
        "lon": -152.51388899999998,
        "lat": 57.730278000000006,
        "established": "1984-07-10 00:00:00.0",
        "MLLW": 7.702296,
        "NAVD88": 7.97052,
        "tideType": "Mixed",
        "waterBody":"NaN",
        "source": "noaa"
    },